City,Country,Lat,Lng,Max Temp,Humidity,Cloudiness,Wind Speed,Date
Grindavik,IS,63.8424,-22.4338,52.56,100,90,9.22,1628039180
Bako,ET,5.7833,36.5667,67.21,61,99,3.87,1628039180
Port Alfred,ZA,-33.5906,26.891,64.26,39,0,10.4,1628039181
Cervo,ES,43.6702,-7.4101,68.2,91,100,10.02,1628039181
Portmore,JM,17.9702,-76.8672,84.16,75,75,11.5,1628039181
Necochea,AR,-38.5473,-58.7368,46.04,68,100,5.5,1628039182
Mâncio Lima,BR,-7.6142,-72.8958,71.85,54,1,1.92,1628039182
Nurota,UZ,40.5614,65.6886,73.49,29,0,5.21,1628039182
Havelock,US,34.8791,-76.9013,71.58,95,100,5.99,1628039182
Sioux Lookout,CA,50.1001,-91.917,77.04,44,59,3.36,1628039183
Ushuaia,AR,-54.8,-68.3,42.46,61,75,0.0,1628039183
Carballo,ES,43.213,-8.691,66.9,95,100,3.44,1628039183
Ayagoz,KZ,47.9714,80.4392,69.73,46,40,14.85,1628039184
Gao,ML,16.6362,1.637,90.19,38,94,6.89,1628039184
Bayan,CN,46.0833,127.4,65.84,89,100,5.23,1628039119
Kudahuvadhoo,MV,2.6708,72.8944,82.06,72,100,2.98,1628039185
Bredasdorp,ZA,-34.5322,20.0403,49.28,95,94,2.95,1628038958
Hermanus,ZA,-34.4187,19.2345,52.9,90,52,6.02,1628039185
Rio Grande,BR,-32.035,-52.0986,51.94,91,5,4.34,1628039097
Vardø,NO,70.3705,31.1107,46.27,96,100,35.81,1628039185
Mazara del Vallo,IT,37.6641,12.588,87.55,89,84,18.41,1628039186
Vila Velha,BR,-20.3297,-40.2925,64.35,94,0,0.0,1628039186
Punta Arenas,CL,-53.15,-70.9167,42.91,70,90,9.22,1628039155
Touros,BR,-5.1989,-35.4608,74.3,80,100,17.18,1628039186
Hithadhoo,MV,-0.6,73.0833,81.57,75,100,7.7,1628039187
Busselton,AU,-33.65,115.3333,53.82,74,65,3.02,1628039099
Moose Factory,CA,51.2585,-80.6094,51.48,76,63,5.03,1628039187
Yar-Sale,RU,66.8333,70.8333,60.13,80,86,9.8,1628039187
Itarema,BR,-2.9248,-39.9167,77.86,79,69,8.21,1628039188
Camacha,PT,33.0833,-16.3333,67.53,68,40,16.11,1628039188
Mosquera,CO,4.7059,-74.2302,55.49,76,75,5.75,1628039188
Qaanaaq,GL,77.484,-69.3632,41.95,96,100,3.67,1628039189
Salalah,OM,17.0151,54.0924,78.89,94,90,5.75,1628039189
Al Bardīyah,LY,31.7561,25.0865,81.9,72,0,11.72,1628039189
Mlalo,TZ,-4.9333,38.9333,67.15,95,29,5.68,1628039190
Varhaug,NO,58.6147,5.6457,54.48,75,49,8.99,1628039190
Fomboni,KM,-12.28,43.7425,75.33,69,0,8.77,1628039190
Mwene-Ditu,CD,-7.0,23.45,67.21,33,0,4.68,1628039191
Piaçabuçu,BR,-10.4056,-36.4344,71.46,88,99,8.41,1628039191
Hong Kong,HK,22.2855,114.1577,86.32,80,75,3.0,1628039018
Araioses,BR,-2.89,-41.9031,76.39,85,27,5.03,1628039191
Matagami,CA,49.7502,-77.6328,51.22,75,87,5.61,1628039192
Acaraú,BR,-2.8856,-40.12,77.23,81,52,7.29,1628039192
Laguna,US,38.421,-121.4238,105.91,15,1,3.0,1628039072
Yurla,RU,59.3259,54.3223,65.98,89,99,5.7,1628039193
Ilulissat,GL,69.2167,-51.1,46.42,87,40,0.0,1628039193
Iralaya,HN,15.0,-83.2333,81.32,76,100,11.12,1628039193
Jamestown,US,42.097,-79.2353,65.84,68,1,5.75,1628038940
Coyhaique,CL,-45.5752,-72.0662,39.15,81,0,4.61,1628039194
Marathon,US,44.9,-89.7668,72.81,81,60,5.3,1628039194
Harper,LR,4.375,-7.7169,75.78,83,99,6.8,1628039194
Jeremoabo,BR,-10.075,-38.4808,67.96,79,100,7.16,1628039195
Torbay,CA,47.6666,-52.7314,63.57,82,2,8.01,1628039001
Tocopilla,CL,-22.092,-70.1979,62.8,61,0,2.3,1628039195
Klaksvík,FO,62.2266,-6.589,50.92,89,100,5.68,1628039195
Mossamedes,AO,-15.1961,12.1522,65.19,77,0,7.87,1628039196
Lagoa,PT,39.05,-27.9833,71.38,90,5,6.87,1628039196
Narasannapeta,IN,18.4167,84.05,82.26,70,98,5.32,1628039196
Zhezkazgan,KZ,47.8043,67.7144,73.78,39,3,10.65,1628039197
Longyearbyen,SJ,78.2186,15.6401,46.24,66,75,11.5,1628039197
Andenes,NO,69.3143,16.1194,48.18,93,90,6.91,1628038990
Birao,CF,10.2849,22.7882,69.37,97,100,4.0,1628039197
Aswān,EG,24.0934,32.907,89.98,14,48,4.88,1628039198
Vologda,RU,59.2187,39.8886,53.67,91,0,7.83,1628039198
Araouane,ML,18.9048,-3.5265,87.96,44,100,21.41,1628039198
East London,ZA,-33.0153,27.9116,66.34,25,0,7.45,1628039107
Aden,YE,12.7794,45.0367,84.31,80,18,18.68,1628039199
Lüderitz,NA,-26.6481,15.1594,56.1,89,29,3.15,1628039199
Dalmau,IN,26.0667,81.0333,78.24,86,42,6.67,1628039199
George Town,MY,5.4112,100.3354,80.53,89,20,2.3,1628039159
Caraz,PE,-9.0486,-77.81,63.5,60,7,1.66,1628039200
Ouricuri,BR,-7.8825,-40.0817,72.99,62,56,8.34,1628039200
Ancud,CL,-41.8697,-73.8203,42.42,75,10,5.28,1628039200
Clyde River,CA,70.4692,-68.5914,39.24,86,28,5.12,1628038995
Port Elizabeth,ZA,-33.918,25.5701,58.98,81,0,11.21,1628038912
Souillac,MU,-20.5167,57.5167,65.35,72,17,10.4,1628039201
Oranjemund,NA,-28.55,16.4333,57.58,76,1,3.24,1628039201
Pitanga,BR,-24.7572,-51.7614,46.24,77,1,3.78,1628039201
India,IN,20.0,77.0,73.29,91,98,9.37,1628038943
Upala,CR,10.8979,-85.0145,75.6,93,100,2.77,1628039202
Boca do Acre,BR,-8.7522,-67.3978,74.21,45,0,1.88,1628039202
Olinda,BR,-8.0089,-34.8553,73.54,86,75,10.31,1628038992
San Rafael,AR,-34.6177,-68.3301,56.32,30,0,1.54,1628039202
Barbosa Ferraz,BR,-24.03,-52.0117,53.37,75,100,3.98,1628039203
Vitorino Freire,BR,-4.0667,-45.1667,74.95,51,46,2.28,1628039203
Marzuq,YE,14.4,46.4667,79.59,61,31,5.91,1628039203
Goderich,CA,43.7501,-81.7165,71.91,68,0,8.79,1628039204
Pemba,MZ,-12.974,40.5178,70.5,88,20,10.36,1628039204
Road Town,VG,18.4167,-64.6167,82.2,75,5,14.12,1628039167
Omboué,GA,-1.5746,9.2618,74.12,89,41,8.48,1628039204
Saint George,US,37.1041,-113.5841,105.39,13,1,1.01,1628039205
Lagan,RU,45.3929,47.3707,79.9,50,1,5.23,1628039205
Dikson,RU,73.5069,80.5464,46.24,85,100,8.77,1628039205
Malanville,BJ,11.8685,3.3899,76.15,83,93,7.56,1628039205
Adwa,ET,14.1646,38.8955,59.81,92,92,0.29,1628039206
Cape Town,ZA,-33.9258,18.4232,58.1,87,0,1.99,1628038638
Margate,GB,51.3813,1.3862,58.3,88,0,6.13,1628039206
Arraial do Cabo,BR,-22.9661,-42.0278,68.31,73,68,13.58,1628039206
Kavaratti,IN,10.5669,72.642,81.95,76,100,15.73,1628039207
Mar del Plata,AR,-38.0023,-57.5575,53.87,39,0,3.44,1628039207
Arraias,BR,-12.9288,-46.9437,69.71,37,1,4.9,1628039207
Shepetivka,UA,50.1855,27.0637,57.18,71,33,3.2,1628039208
Castro,BR,-24.7911,-50.0119,44.55,93,57,4.76,1628039039
São Filipe,CV,14.8961,-24.4956,76.32,91,100,4.29,1628039208
Wrocław,PL,51.1,17.0333,62.98,93,0,2.3,1628039141
Lebu,CL,-37.6167,-73.65,50.52,91,11,9.71,1628039208
Cap-aux-Meules,CA,47.3821,-61.8597,65.68,74,100,30.18,1628039209
Jacqueville,CI,5.2052,-4.4146,76.91,90,98,11.48,1628039209
Belmonte,BR,-15.8631,-38.8828,68.5,81,11,8.86,1628039210
Lusambo,CD,-4.9667,23.45,68.45,44,0,1.57,1628039210
Mahébourg,MU,-20.4081,57.7,65.25,69,7,11.59,1628039210
Lilongwe,MW,-13.9669,33.7873,53.96,59,0,4.76,1628039211
Bonthe,SL,7.5264,-12.505,76.28,78,67,5.35,1628039211
Esim,GH,4.8699,-2.2405,76.35,90,94,8.55,1628039211
Benguela,AO,-12.5763,13.4055,68.63,90,19,7.05,1628039212
Turbat,PK,26.0023,63.044,83.01,69,0,4.7,1628039212
Doka,SD,13.5167,35.7667,71.17,81,100,3.38,1628039212
Ribeira Grande,PT,38.5167,-28.7,72.34,87,1,4.9,1628039212
Krasnosel'kup,RU,65.7,82.4667,62.53,81,7,7.11,1628039213
Awjilah,LY,29.1081,21.2869,88.09,24,0,8.66,1628038991
Abu Kamal,SY,34.4506,40.9171,93.54,20,4,11.18,1628039213
Riyadh,SA,24.6877,46.7219,87.94,11,38,3.29,1628039214
Zhanakorgan,KZ,43.9098,67.2495,83.55,24,0,13.91,1628039214
Sambava,MG,-14.2667,50.1667,67.3,86,3,11.21,1628039214
Silifke,TR,36.3778,33.9344,85.59,44,0,6.96,1628039215
Ponta do Sol,PT,32.6667,-17.1,72.01,76,12,6.11,1628038949
Dhankutā,NP,26.9833,87.3333,70.41,89,100,2.39,1628039215
Saint-Philippe,RE,-21.3585,55.7679,64.22,87,94,15.77,1628039215
Birr,IE,53.0914,-7.9133,56.95,94,99,3.56,1628039216
Muros,ES,42.7762,-9.0603,67.98,95,94,5.48,1628039098
Rocha,UY,-34.4833,-54.3333,46.22,93,22,2.3,1628039216
Honningsvåg,NO,70.9821,25.9704,47.43,80,100,14.29,1628039216
Bathsheba,BB,13.2167,-59.5167,81.21,78,20,10.36,1628039217
Inhambane,MZ,-23.865,35.3833,62.64,69,0,6.4,1628039217
Roald,NO,62.5833,6.1333,54.0,93,90,3.44,1628039217
Tasiilaq,GL,65.6145,-37.6368,44.76,83,100,2.33,1628038991
Saint Anthony,US,45.0205,-93.218,81.72,51,1,3.0,1628039218
Talnakh,RU,69.4865,88.3972,70.65,58,0,7.4,1628039218
Upernavik,GL,72.7868,-56.1549,40.84,90,23,11.83,1628039043
Bom Jesus,BR,-9.0744,-44.3586,70.56,46,7,2.98,1628039218
Timmins,CA,48.4669,-81.3331,57.74,65,56,4.14,1628039219
Corralillo,CU,22.9819,-80.5856,79.07,84,92,4.92,1628039219
Paamiut,GL,61.994,-49.6678,45.48,94,100,4.76,1628038991
San Miguel de Cozumel,MX,20.5083,-86.9458,84.94,82,20,1.99,1628039219
Cockburn Town,TC,21.4612,-71.1419,82.36,77,24,21.05,1628039220
Yara,CU,20.2753,-76.9533,78.15,81,100,0.83,1628039220
Bereda,ES,43.2686,-7.5406,65.41,100,100,3.62,1628039220
Presidencia Roque Sáenz Peña,AR,-26.7852,-60.4388,53.1,48,98,6.33,1628039221
Eyl,SO,7.9803,49.8164,78.76,68,3,24.0,1628038937
Krutinka,RU,56.0055,71.5113,56.14,95,15,5.99,1628039221
Chui,UY,-33.6971,-53.4616,48.49,93,6,4.07,1628039221
Níjar,ES,36.9665,-2.206,71.24,83,0,3.44,1628039222
Jaqué,PA,7.5175,-78.1703,78.31,88,100,2.95,1628038993
Dolores,AR,-36.3132,-57.6792,48.07,70,0,3.51,1628039222
Dwārka,IN,22.2394,68.9678,81.25,82,100,22.68,1628039222
Vestmannaeyjar,IS,63.4427,-20.2734,53.74,93,100,8.46,1628038990
Sovetskaya,RU,44.7769,41.1722,66.4,67,0,7.16,1628039223
Walvis Bay,NA,-22.9575,14.5053,59.09,82,0,6.89,1628039223
Oktyabr'skoye,RU,43.0645,44.7417,62.74,88,5,4.47,1628039223
Vangaindrano,MG,-23.35,47.6,64.65,88,90,6.15,1628039161
Kérouané,GN,9.2667,-9.0167,69.01,95,100,2.17,1628039224
Codrington,AU,-38.2667,141.9667,54.05,88,99,16.58,1628039224
Gbadolite,CD,4.2833,21.0167,68.72,90,65,2.01,1628039224
Nicoya,CR,10.1483,-85.452,74.75,91,100,0.31,1628039225
Prieska,ZA,-29.6641,22.7474,55.47,20,0,7.11,1628039225
Samfya,ZM,-11.3649,29.5565,56.53,51,0,7.34,1628039225
Wiarton,CA,44.7407,-81.1332,66.06,73,94,6.42,1628039226
Felanitx,ES,39.4696,3.1483,72.01,71,97,3.94,1628039226
Obo,CF,5.3998,26.4869,65.97,98,10,1.83,1628039226
Sørland,NO,67.667,12.6934,52.09,85,100,12.8,1628039226
Timbiquí,CO,2.7717,-77.6654,74.75,94,100,1.32,1628039227
Carhuamayo,PE,-10.9167,-76.0333,34.41,82,90,6.46,1628039227
Ferkessédougou,CI,9.6,-5.2,73.02,90,100,1.39,1628038938
Bonavista,CA,48.6499,-53.1147,64.11,80,31,19.17,1628039228
Hofn,IS,64.2539,-15.2082,53.82,88,100,3.36,1628039228
Tres Arroyos,AR,-38.3739,-60.2798,49.59,68,72,5.39,1628039228
Hamilton,US,39.1834,-84.5333,74.03,64,20,0.0,1628039086
Saint-Augustin,CA,51.226,-58.6502,59.88,86,100,19.62,1628039228
Maxixe,MZ,-23.8597,35.3472,61.21,72,0,5.48,1628039229
Vila Franca do Campo,PT,37.7167,-25.4333,72.01,91,19,3.62,1628039229
Bambous Virieux,MU,-20.3428,57.7575,65.21,69,6,11.63,1628039229
Alta Floresta,BR,-9.8756,-56.0861,73.45,36,0,3.83,1628039230
Narsaq,GL,60.9167,-46.05,46.62,96,100,2.64,1628039230
San Isidro,PE,-12.1167,-77.05,62.26,89,90,1.01,1628039230
Saint-Pierre,RE,-21.3393,55.4781,64.29,92,75,8.05,1628039231
Bandarbeyla,SO,9.4942,50.8122,79.48,69,4,26.89,1628039231
Kiryat Gat,IL,31.61,34.7642,84.4,40,0,5.48,1628038981
Vieux-Habitants,GP,16.0589,-61.7659,78.37,78,0,9.01,1628039232
Thyolo,MW,-16.0678,35.1405,50.09,90,0,1.72,1628039232
Koutsouras,GR,35.0339,25.9469,85.1,46,0,18.12,1628039232
Iqaluit,CA,63.7506,-68.5145,43.7,87,100,17.0,1628039232
Nuuk,GL,64.1835,-51.7216,50.61,81,75,16.11,1628039233
Abrau-Dyurso,RU,44.69,37.59,72.86,77,11,3.96,1628039233
Saldanha,ZA,-33.0117,17.9442,55.98,92,2,7.0,1628039182
Pisco,PE,-13.7,-76.2167,62.65,82,90,9.22,1628039233
Arrondissement d'Issoudun,FR,47.0,1.8333,57.11,100,90,3.44,1628039234
Doba,TD,8.65,16.85,71.82,96,100,1.79,1628039234
Lukovetskiy,RU,64.2956,41.9211,57.18,82,0,9.44,1628039234
Srikakulam,IN,18.3,83.9,83.05,69,100,4.9,1628039235
Adrar,MR,20.5022,-10.0711,88.88,37,4,10.2,1628039235
Aksay,RU,47.26,39.87,79.25,52,10,18.01,1628039235
Kisangani,CD,0.5167,25.2,72.75,76,93,1.88,1628039236
Valladolid,ES,41.5833,-4.6667,71.89,65,100,2.86,1628039236
Edgewater,US,28.9889,-80.9023,79.29,94,75,11.5,1628039236
Mbale,UG,1.0821,34.175,62.4,86,33,4.65,1628039237
Dingle,PH,10.9995,122.6711,85.37,70,100,14.99,1628039237
Timizart,DZ,36.8,4.2667,71.37,95,27,2.33,1628039237
Hīt,IQ,33.6416,42.8251,95.22,18,21,10.51,1628039238
Arrondissement de Meaux,FR,48.9167,3.0,56.66,90,100,5.26,1628039238
Cidreira,BR,-30.1811,-50.2056,57.74,86,100,5.7,1628039238
Zelenogorskiy,RU,55.0333,87.0,63.12,96,100,1.81,1628039238
Kattivākkam,IN,13.2167,80.3167,84.29,65,94,11.43,1628039239
Eganville,CA,45.5334,-77.0994,68.52,75,45,5.82,1628039239
Cayenne,GF,4.9333,-52.3333,81.09,83,0,1.01,1628039192
Paita,PE,-5.0892,-81.1144,65.5,85,76,11.81,1628039239
Nanortalik,GL,60.1432,-45.2371,44.15,97,100,7.4,1628039236
Platonovka,RU,52.7106,41.952,62.76,94,100,2.86,1628039240
Ila,NO,63.4305,10.3705,49.95,74,12,2.08,1628039240
Bud,US,39.447,-86.1758,73.42,76,58,5.23,1628039240
Edéa,CM,3.8,10.1333,73.02,97,100,0.74,1628039241
Waddān,LY,29.1614,16.139,84.88,32,0,9.46,1628039241
Ust'-Koksa,RU,50.2696,85.6108,61.03,73,97,0.45,1628039241
Charyshskoye,RU,51.3978,83.5598,63.28,89,96,1.54,1628039242
Épernay,FR,49.05,3.95,57.31,90,100,4.99,1628039242
Canutama,BR,-6.5339,-64.3831,82.15,40,100,1.23,1628039242
Calatayud,ES,41.3535,-1.6432,73.98,37,100,2.57,1628039243
Chimoio,MZ,-19.1164,33.4833,52.2,95,1,2.86,1628039243
Jumla,NP,29.2747,82.1838,64.8,89,100,0.56,1628039243
Antofagasta,CL,-23.65,-70.4,58.14,72,38,2.19,1628038952
Ocean City,US,39.2776,-74.5746,71.98,80,100,1.01,1628039244
County Wicklow,IE,53.0,-6.4167,50.95,93,95,1.79,1628039244
Urambo,TZ,-5.0667,32.05,70.97,43,100,5.97,1628039244
Kaoma,ZM,-14.7833,24.8,50.41,39,0,5.88,1628039244
Saint-Paul,RE,-21.0096,55.2707,64.74,72,16,7.76,1628039245
La Palma,US,33.8464,-118.0467,108.03,50,20,5.01,1628039245
Mandalī,IQ,33.7499,45.5541,96.13,13,5,6.8,1628039245
Zaysan,KZ,47.4667,84.8667,78.91,25,94,1.99,1628039246
Karasjok,NO,69.4719,25.5112,46.51,72,100,20.8,1628039246
Umluj,SA,25.0213,37.2685,88.27,64,21,8.21,1628039246
Hwange,ZW,-18.3693,26.5019,59.59,40,0,4.76,1628039246
Ubauro,PK,28.1652,69.7289,85.98,63,24,12.15,1628039247
Gemeente Wageningen,NL,51.9667,5.6667,58.06,87,73,4.14,1628039247
Accra,GH,5.556,-0.1969,76.21,90,86,12.37,1628039247
Sistranda,NO,63.7256,8.834,49.89,68,68,3.83,1628039248
Grand Gaube,MU,-20.0064,57.6608,65.37,73,5,1.99,1628039248
Dromolaxia,CY,34.8761,33.586,86.67,47,0,0.0,1628039248
Aranda de Duero,ES,41.6704,-3.6892,66.9,52,100,5.32,1628039249
Springfield,US,37.2153,-93.2982,74.55,75,1,5.01,1628039026
Havre-St-Pierre,CA,50.2334,-63.5986,60.57,60,0,17.43,1628039011
Sarwār,IN,26.0667,75.0,78.98,81,100,17.02,1628039249
Zemio,CF,5.0314,25.1361,66.06,97,18,1.79,1628039249
Porto-Novo,BJ,6.4965,2.6036,76.05,88,95,6.29,1628039250
Krutikha,RU,53.9599,81.2093,63.82,68,5,4.45,1628039250
Borba,BR,-4.3878,-59.5939,76.98,72,98,2.86,1628039250
Nioro,GM,13.35,-15.75,76.39,93,100,5.7,1628039251
Karaidel',RU,55.8337,56.9069,65.61,63,13,2.98,1628039251
Ciudad Guayana,VE,8.3533,-62.6528,73.87,95,100,1.19,1628039251
Kamyshin,RU,50.0983,45.416,72.57,56,100,9.01,1628039251
Strezhevoy,RU,60.7333,77.5889,58.98,90,31,4.03,1628039252
Russas,BR,-4.9403,-37.9758,76.15,79,100,5.26,1628039252
Odienné,CI,9.51,-7.5692,72.19,92,89,1.43,1628039252
Talara,PE,-4.5772,-81.2719,64.87,89,23,7.0,1628039253
Goma,CD,-1.6792,29.2228,63.37,72,75,1.83,1628039253
Richards Bay,ZA,-28.783,32.0377,63.32,78,0,16.44,1628039253
Vawkavysk,BY,53.1561,24.4513,58.15,76,100,5.23,1628039254
Dano,BF,11.15,-3.0667,72.81,85,91,3.53,1628039242
Amalfi,CO,6.9102,-75.0776,59.18,96,99,2.13,1628039254
Sur,OM,22.5667,59.5289,86.38,62,5,5.95,1628039254
Coquimbo,CL,-29.9533,-71.3436,54.18,90,26,3.33,1628038996
Ostrovnoy,RU,68.0531,39.5131,54.99,87,55,18.3,1628039255
Yining,CN,29.0361,114.5636,87.19,68,14,5.46,1628039255
Westport,US,41.1415,-73.3579,73.2,82,1,1.01,1628039010
Changji,CN,44.0167,87.3167,81.39,26,0,6.71,1628039255
Buraidah,SA,26.326,43.975,86.52,14,7,9.13,1628039256
Olafsvik,IS,64.8945,-23.7142,53.56,91,95,8.16,1628039200
São Marcos,BR,-28.9711,-51.0681,48.72,98,20,3.0,1628039256
Emirdağ,TR,39.0197,31.15,69.13,45,0,3.94,1628039256
Port-Gentil,GA,-0.7193,8.7815,75.49,87,43,14.47,1628039257
Kruisfontein,ZA,-34.0033,24.7314,53.08,81,2,7.67,1628039257
Balkhash,KZ,46.844,74.9804,74.01,35,20,20.13,1628039257
Garoua,CM,9.3,13.4,74.28,91,100,4.09,1628039258
Kilindoni,TZ,-7.9139,39.6668,75.33,73,0,13.69,1628039258
Lagos,NG,6.5833,3.75,75.2,94,95,4.16,1628038988
Río Gallegos,AR,-51.6226,-69.2181,41.05,56,40,11.5,1628039258
Clearwater,US,27.9659,-82.8001,82.31,88,90,8.01,1628039106
Hualmay,PE,-11.0964,-77.6139,64.96,81,11,9.19,1628039259
Weligama,LK,5.9667,80.4167,77.94,87,100,9.84,1628039259
Hobyo,SO,5.3505,48.5268,77.13,78,74,21.25,1628039259
Buta,CD,2.7858,24.73,69.94,96,95,1.28,1628039260
Maputo,MZ,-25.9653,32.5892,59.85,86,1,6.13,1628039260
Tarancón,ES,40.0085,-3.0073,75.9,33,100,4.05,1628039260
Kumluca,TR,36.3703,30.2869,88.84,35,0,5.28,1628039261
Panama City,PA,8.9936,-79.5197,79.18,92,75,2.3,1628039261
Alekseyevka,RU,50.6309,38.6903,61.18,82,52,6.49,1628039261
Gwadar,PK,25.1216,62.3254,80.04,84,60,6.53,1628039261
Liliani,PK,32.2065,72.9537,87.22,66,100,3.96,1628039262
Amapá,BR,1.0,-52.0,74.1,86,100,1.34,1628039105
Humboldt,US,40.6665,-123.9178,54.05,45,96,5.64,1628039262
Sechura,PE,-5.5569,-80.8222,66.85,76,80,15.01,1628039262
Banyo,CM,6.75,11.8167,64.9,96,100,2.06,1628039263
Eenhana,NA,-17.4667,16.3333,55.24,38,0,3.04,1628039263
Linguère,SN,15.3953,-15.1193,80.44,76,98,9.95,1628039263
Husavik,IS,66.0449,-17.3389,51.28,85,89,1.61,1628039264
Ndioum,SN,16.5129,-14.6471,83.5,68,13,16.13,1628039264
Mishkino,RU,55.3389,63.9175,64.17,76,30,3.89,1628039264
Bachaquero,VE,9.9694,-71.1494,79.63,82,100,7.2,1628039265
Elizabeth City,US,36.2946,-76.2511,72.01,96,90,9.22,1628039265
Santa Helena de Goiás,BR,-17.8136,-50.5969,68.94,47,68,8.37,1628039037
Vila Praia de Âncora,PT,41.811,-8.8526,69.71,96,100,2.86,1628039265
Aras,ES,42.5617,-2.356,66.61,56,0,3.44,1628039266
São Gotardo,BR,-19.3111,-46.0489,62.62,46,87,0.6,1628039266
Mariental,NA,-24.6333,17.9667,57.87,35,5,1.41,1628039266
Drabiv,UA,49.963,32.1529,60.21,71,1,4.97,1628039266
Kalabo,ZM,-14.97,22.6814,53.8,38,0,4.5,1628039267
Wajir,KE,1.7471,40.0573,72.81,65,50,13.0,1628039267
Taoudenni,ML,22.6783,-3.9836,103.55,15,84,6.64,1628039267
Salinópolis,BR,-0.6136,-47.3561,78.42,80,76,4.43,1628039268
Thouars,FR,46.976,-0.2151,59.72,88,100,5.86,1628039268
Yangi Marg`ilon,UZ,40.4272,71.7189,75.92,38,0,6.91,1628039268
Nouadhibou,MR,20.931,-17.0347,70.65,85,13,12.95,1628039268
Isla Mujeres,MX,21.2311,-86.731,84.16,78,7,8.99,1628039035
Manakara,MG,-22.1333,48.0167,65.97,88,96,7.31,1628039269
San Cristobal,VE,7.7669,-72.225,75.38,98,90,4.45,1628039269
Mīnāb,IR,27.1467,57.0801,92.7,69,2,3.71,1628039270
Maniitsoq,GL,65.4167,-52.9,45.16,93,100,6.04,1628039270
Shelburne,CA,44.0787,-80.2041,69.57,74,0,6.82,1628039270
Diósjenő,HU,47.9397,19.0432,66.29,74,100,1.61,1628039271
Oriximiná,BR,-1.7656,-55.8661,77.99,77,100,3.44,1628039271
Quelimane,MZ,-17.8786,36.8883,60.75,88,40,4.61,1628039271
Kita,ML,13.0349,-9.4895,73.54,93,20,1.83,1628039271
Key West,US,24.5557,-81.7826,89.6,67,1,4.61,1628039272
Safi,MA,32.2994,-9.2372,67.53,93,0,6.82,1628039272
Madīnat Sittah Uktūbar,EG,29.8167,31.05,85.6,38,0,9.78,1628039272
Yanam,IN,16.7333,82.2167,84.6,66,100,4.83,1628039273
Lerwick,GB,60.1545,-1.1494,55.4,92,100,8.48,1628039273
Henties Bay,NA,-22.116,14.2845,58.86,77,0,5.68,1628039273
Lucea,JM,18.451,-78.1736,77.86,76,99,3.58,1628039274
Luanda,AO,-8.8368,13.2343,69.33,92,31,7.74,1628039091
Pedernales,DO,18.0384,-71.744,80.76,79,100,8.63,1628039274
Onguday,RU,50.75,86.15,60.89,80,51,1.5,1628039274
São João da Barra,BR,-21.6403,-41.0511,65.55,86,75,11.83,1628039275
Jagtiāl,IN,18.8,78.9333,77.25,81,25,10.56,1628039275
Aguçadoura,PT,41.4318,-8.7804,68.23,96,88,1.43,1628039275
Tucano,BR,-10.9631,-38.7867,66.42,84,95,5.53,1628039275
Warrington,GB,53.3925,-2.5802,58.86,82,98,4.61,1628039001
Brae,GB,60.3964,-1.353,55.31,91,100,7.27,1628039276
Bengkulu,ID,-3.8004,102.2655,76.98,89,100,4.43,1628039276
Lucapa,AO,-8.4192,20.7447,64.36,34,0,2.98,1628039276
Chokwé,MZ,-24.5333,32.9833,58.48,82,0,4.7,1628039277
Hambantota,LK,6.1241,81.1185,79.14,94,0,12.66,1628039277
Oleksandrivka,UA,48.9634,32.2349,63.37,65,2,3.0,1628039277
Ulundi,ZA,-28.3352,31.4162,53.69,74,0,5.3,1628039278
Muscat,OM,23.6139,58.5922,89.62,79,1,6.24,1628039278
Praia da Vitória,PT,38.7333,-27.0667,72.75,84,14,7.29,1628039278
Morropón,PE,-5.1822,-79.9689,75.43,59,12,4.94,1628039278
Bogandé,BF,12.9714,-0.1436,82.89,61,33,10.58,1628039279
Urucará,BR,-2.5364,-57.76,74.7,85,40,1.43,1628039279
Bahir Dar,ET,11.5936,37.3908,57.25,89,100,3.24,1628039279
San Andrés,CO,12.5847,-81.7006,77.02,94,90,9.22,1628039280
Kadambūr,IN,8.9833,77.8667,78.87,67,100,14.27,1628039280
Great Yarmouth,GB,52.6083,1.7305,58.95,74,13,6.96,1628039280
Bethalto,US,38.9092,-90.0407,77.18,67,1,3.44,1628039280
Villazón,BO,-22.0866,-65.5942,39.88,76,100,14.03,1628039281
Ponta Delgada,PT,37.7333,-25.6667,72.32,88,40,6.91,1628039281
Rafaela,AR,-31.2503,-61.4867,53.06,48,100,6.49,1628039282
Murgab,TM,37.4966,61.9714,75.07,41,0,4.61,1628039282
Abidjan,CI,5.3094,-4.0197,76.96,100,20,5.75,1628039282
Tumaco,CO,1.7986,-78.8156,77.16,86,100,5.77,1628039282
Thompson,CA,55.7435,-97.8558,86.41,28,100,8.48,1628039283
Mwinilunga,ZM,-11.7358,24.4293,54.86,47,1,3.96,1628039283
Mogadishu,SO,2.0371,45.3438,76.3,86,95,15.66,1628038997
Rabak,SD,13.1809,32.74,78.13,73,100,10.51,1628039283
Médéa,DZ,36.2642,2.7539,64.85,84,94,0.96,1628039284
Los Llanos de Aridane,ES,28.6585,-17.9182,67.75,91,0,11.5,1628039284
Jérémie,HT,18.65,-74.1167,80.53,77,100,2.26,1628039284
Deep River,CA,46.1001,-77.4995,68.95,97,100,2.93,1628039145
Chicama,PE,-7.8447,-79.1469,63.14,76,1,7.05,1628039285
Sonīpat,IN,28.9833,77.0167,82.4,79,100,7.9,1628039285
Inta,RU,66.0317,60.1659,61.93,78,100,5.93,1628039285
Rabat,MA,33.9911,-6.8401,71.67,92,75,3.44,1628039148
Abu Dhabi,AE,24.4667,54.3667,89.71,66,0,0.0,1628039286
Humaitá,BR,-7.5061,-63.0208,83.66,35,98,2.93,1628039286
Boone,US,39.0334,-92.3335,74.86,69,47,4.94,1628039286
Itacoatiara,BR,-3.1431,-58.4442,74.32,86,100,2.64,1628039287
Cravo Norte,CO,6.3017,-70.2041,74.44,86,100,5.32,1628039287
Carauari,BR,-4.8828,-66.8958,74.97,54,4,0.47,1628039071
Borgarnes,IS,64.5383,-21.9206,53.82,94,100,1.05,1628039287
Stromness,GB,58.965,-3.296,52.05,82,100,3.22,1628039288
Brigantine,US,39.4101,-74.3646,72.01,84,1,0.0,1628039288
George,ZA,-33.963,22.4617,51.35,93,90,3.44,1628039288
Puerto del Rosario,ES,28.5004,-13.8627,71.35,68,0,14.97,1628039289
Abhā,SA,18.2164,42.5053,61.05,77,0,4.61,1628039289
Pāvilosta,LV,56.8879,21.1859,51.71,67,0,4.41,1628039289
Malakal,SS,9.5334,31.6605,71.71,90,100,1.52,1628039289
Kjøllefjord,NO,70.9457,27.3465,46.58,83,100,15.73,1628039290
İstisu,AZ,40.9457,48.0738,70.54,37,47,6.69,1628039290
San Matías,BO,-16.3667,-58.4,75.24,38,100,4.63,1628039290
Bennington,US,42.8781,-73.1968,66.79,75,100,2.46,1628039137
Keetmanshoop,NA,-26.5833,18.1333,60.03,31,92,2.75,1628039291
Conde,BR,-7.2597,-34.9075,72.86,94,40,4.61,1628039291
Suruç,TR,36.9761,38.425,88.0,28,4,7.63,1628039291
Sibut,CF,5.718,19.0739,68.54,93,16,1.66,1628039281
Puerto Colombia,CO,10.9878,-74.9547,80.69,79,100,6.51,1628039292
Jaleshwar,NP,26.6471,85.8008,84.97,76,100,1.05,1628039292
San Borja,BO,-14.8167,-66.85,68.49,50,87,4.12,1628039292
Jāwā,JO,31.8525,35.9393,79.11,29,0,5.75,1628039293
Buchanan,LR,5.8808,-10.0467,75.16,81,9,5.23,1628039293
Jalu,LY,29.0331,21.5482,88.09,25,0,9.42,1628039293
Pasni,PK,25.2631,63.471,80.22,85,17,11.79,1628039294
Akureyri,IS,65.6835,-18.0878,54.3,88,100,2.21,1628039294
Amalner,IN,21.05,75.0667,79.23,76,100,10.6,1628039294
Pitimbu,BR,-7.4706,-34.8086,73.99,87,91,11.77,1628039295
Ginda,IN,30.6945,78.4932,68.36,89,84,1.92,1628039295
Maceió,BR,-9.6658,-35.7353,71.04,100,90,4.61,1628039295
Iskateley,RU,67.6803,53.1512,64.06,76,100,14.27,1628039295
Balad,IQ,34.0164,44.1453,95.99,19,6,7.85,1628039296
Am Timan,TD,11.0297,20.2827,71.13,96,85,3.69,1628039296
Burgeo,CA,47.6167,-57.6152,58.44,92,100,7.85,1628039296
Gouyave,GD,12.1646,-61.7296,80.38,75,100,11.36,1628039297
Carnarvon,AU,-24.8667,113.6333,57.27,42,0,14.97,1628039297
Iracoubo,GF,5.4802,-53.2011,77.54,83,7,6.98,1628039297
Sinnamary,GF,5.3833,-52.95,76.78,85,10,6.8,1628039298
Kalemie,CD,-5.9475,29.1947,69.73,59,5,2.1,1628039298
Kafanchan,NG,9.5833,8.3,67.15,97,89,1.88,1628039298
Atar,MR,20.5169,-13.0499,89.11,41,100,4.27,1628039299
Ous,RU,60.9058,61.5186,59.77,80,100,4.34,1628039299
Saint-Joseph,RE,-21.3667,55.6167,63.21,87,96,15.14,1628039299
Kamenka,RU,51.3223,42.7678,65.39,95,100,7.94,1628039299
Kokstad,ZA,-30.5472,29.4241,49.19,34,0,5.03,1628039300
Almazar,UZ,40.3217,69.0106,71.31,35,95,1.52,1628039300
Bilma,NE,18.6853,12.9164,92.97,31,3,10.27,1628039300
Robertson,US,36.5167,-86.8667,78.78,71,1,4.61,1628039301
Japura,ID,-0.3167,102.35,77.68,89,68,0.74,1628039301
Arrondissement de Rennes,FR,48.1667,-1.6667,59.04,94,75,4.61,1628039301
Rawson,AR,-43.3002,-65.1023,50.7,48,100,13.87,1628039301
Khorixas,NA,-20.3667,14.9667,54.52,62,0,0.78,1628039302
Karpathos,GR,35.507,27.2132,82.51,65,0,12.15,1628039302
Igurubi,TZ,-4.0,33.7,66.96,57,2,7.18,1628039302
Dmytrivka,UA,45.9717,28.9864,69.76,59,0,5.23,1628039303
Umm Kaddadah,SD,13.6017,26.6876,81.43,64,82,15.5,1628039303
Chardara,KZ,41.2547,67.9692,74.62,42,1,4.72,1628039303
Ustka,PL,54.5805,16.8619,56.75,78,81,4.23,1628039303
Dovers,VC,12.8833,-61.1833,81.14,73,45,10.47,1628039304
Ordu,TR,40.9086,37.6845,61.3,89,0,4.76,1628039304
Alenquer,BR,-1.9417,-54.7383,75.54,75,22,4.0,1628039304
Faya,SA,18.3851,42.4509,61.32,70,10,5.97,1628039305
Mombasa,KE,-4.0547,39.6636,72.84,87,76,9.6,1628039305
Unguía,CO,8.0434,-77.0945,75.72,97,100,2.1,1628039305
Bridlington,GB,54.0831,-0.1919,59.18,87,84,10.92,1628039306
Isāgarh,IN,24.8333,77.8833,73.56,93,100,19.33,1628039306
Curuçá,BR,-0.7289,-47.8481,74.75,86,23,2.89,1628039306
Copiapó,CL,-27.3667,-70.3333,47.89,62,0,1.57,1628039199
The Valley,AI,18.217,-63.0578,82.09,74,2,16.6,1628039028
Riorges,FR,46.0418,4.0497,60.26,93,100,1.88,1628039307
Saint-François,FR,46.4154,3.9054,58.48,95,90,1.14,1628039307
Mangai,CD,-4.05,19.5333,69.66,34,6,0.67,1628039307
Colonial Heights,US,37.268,-77.4073,73.56,88,40,0.0,1628039308
Balyqshy,KZ,47.0667,51.8667,75.2,29,0,6.71,1628039308
Cururupu,BR,-1.8283,-44.8683,72.95,82,42,1.63,1628039308
Tromsø,NO,69.6496,18.957,47.05,93,75,11.5,1628039292
Baoro,CF,5.6667,15.9667,66.81,96,100,1.54,1628039309
Guarapari,BR,-20.6667,-40.4975,64.29,88,96,7.56,1628039309
Bambuí,BR,-20.0064,-45.9769,68.2,37,100,7.45,1628039309
Matam,SN,15.6175,-13.3303,85.33,66,100,11.97,1628039310
Pangnirtung,CA,66.1451,-65.7125,49.55,78,93,3.98,1628039310
Beloha,MG,-25.1667,45.05,61.77,74,17,13.67,1628039310
Gunupur,IN,19.0833,83.8167,78.53,83,100,1.92,1628039311
Channel-Port aux Basques,CA,47.5702,-59.1367,60.94,84,99,9.42,1628039311
Camopi,GF,3.1655,-52.3158,73.08,94,100,1.83,1628039311
Warmbad,NA,-28.45,18.7333,58.84,32,96,2.35,1628039311
Miandrivazo,MG,-19.5167,45.4667,67.86,50,0,5.01,1628039239
Izhma,RU,65.0083,53.9113,61.84,89,100,5.73,1628039312
Tyssedal,NO,60.1165,6.562,52.88,88,100,1.83,1628039312
Alexandria,EG,31.2156,29.9553,81.48,66,0,1.59,1628039281
Manyana,BW,-23.4,21.7167,51.67,35,0,8.97,1628039313
Den Helder,NL,52.9599,4.7593,60.94,81,75,8.05,1628039313
Sokodé,TG,8.9833,1.1333,70.02,94,96,2.68,1628039313
Linhares,BR,-19.3911,-40.0722,63.72,92,82,3.76,1628039314
Kapuskasing,CA,49.4169,-82.4331,57.79,57,68,2.42,1628039279
Plettenberg Bay,ZA,-34.0527,23.3716,55.74,70,0,6.08,1628039314
Quatre Cocos,MU,-20.2078,57.7625,65.08,69,6,11.27,1628039314
Pishin,PK,30.5803,66.9961,73.08,40,0,1.68,1628039295
Santa Cruz de la Sierra,BO,-17.8,-63.1667,67.33,39,88,5.59,1628039116
Gamboma,CG,-1.8764,15.8644,75.79,38,13,2.8,1628039315
Utica,US,43.1009,-75.2327,66.63,76,7,1.88,1628039099
Tshikapa,CD,-6.4167,20.8,69.91,32,2,2.48,1628039315
São Gabriel da Cachoeira,BR,-0.1303,-67.0892,71.62,94,80,1.39,1628039316
Storforshei,NO,66.4043,14.5233,48.65,93,99,2.95,1628039316
Hornepayne,CA,49.2138,-84.7705,60.33,56,100,3.96,1628039316
Verkhotur'ye,RU,58.8627,60.8054,62.31,81,100,3.62,1628039316
Tiznit Province,MA,29.5833,-9.5,63.48,85,68,2.26,1628039317
Chinchani,IN,19.8667,72.7,80.74,86,100,18.92,1628039317
Rágama,ES,40.9977,-5.1272,70.05,62,100,10.27,1628039317
Arrifes,PT,37.7667,-25.7,70.05,88,40,6.91,1628039318
Troitsko-Pechorsk,RU,62.7084,56.1964,59.59,98,85,5.37,1628039318
Viganello,CH,46.0134,8.9688,66.92,98,75,4.61,1628039318
Warwick,US,41.7001,-71.4162,71.02,84,75,5.75,1628039319
Savannah Bight,HN,16.45,-85.85,82.0,82,86,25.03,1628039319
Hurghada,EG,27.2574,33.8129,81.9,67,5,0.92,1628039319
Sinnai,IT,39.3042,9.2036,82.54,45,0,9.22,1628039320
Rzhishchëv,UA,49.9689,31.0463,66.06,70,0,3.36,1628039320
Cap Malheureux,MU,-19.9842,57.6142,65.46,73,5,1.99,1628039320
Barra,BR,-11.0894,-43.1417,72.91,46,6,7.43,1628039320
San Lorenzo,PY,-25.3333,-57.5333,54.54,62,0,3.44,1628039321
San Juan,AR,-31.5375,-68.5364,59.79,27,8,5.5,1628039121
Campo Maior,BR,-4.8278,-42.1686,77.18,43,8,3.27,1628039321
Kragujevac,RS,44.0167,20.9167,61.32,70,0,4.21,1628039321
Opuwo,NA,-18.0607,13.84,56.07,62,0,6.24,1628039322
Khislavichi,RU,54.1871,32.1582,52.38,91,11,5.12,1628039322
Hermon,US,44.8101,-68.9134,67.55,74,75,6.91,1628039322
Tessalit,ML,20.1986,1.0114,86.72,43,12,15.28,1628039283
Qeshm,IR,26.9581,56.2719,93.07,77,1,3.53,1628039323
Maridi,SS,4.9158,29.4742,65.39,94,35,1.28,1628039323
Ati,TD,13.2154,18.3353,78.73,72,100,9.73,1628039323
Los Algarrobos,PA,8.5,-82.4333,78.46,89,75,3.44,1628039324
Muli,MV,2.9167,73.5667,82.22,72,100,3.98,1628039324
Comodoro Rivadavia,AR,-45.8667,-67.5,42.66,39,0,5.75,1628039265
Yacuiba,BO,-22.038,-63.6797,62.64,43,100,2.44,1628039324
Kulhudhuffushi,MV,6.6221,73.07,82.29,75,88,10.45,1628039325
At-Bashi,KG,41.1702,75.8106,56.64,60,2,0.47,1628039325
Esil,KZ,51.9556,66.4042,68.92,69,67,6.31,1628039325
Itaituba,BR,-4.2761,-55.9836,79.97,60,100,1.48,1628039325
Lubao,PH,14.9167,120.55,86.14,83,94,16.2,1628039326
Abonnema,NG,4.7084,6.7931,76.41,88,94,5.03,1628039326
Tsaratanana,MG,-16.7833,47.65,63.64,76,0,8.97,1628039326
Mitú,CO,1.1983,-70.1733,69.85,97,95,1.5,1628039327
Belyy Yar,RU,53.6039,91.3903,64.29,82,0,0.0,1628039327
Idrija,SI,46.0028,14.0306,66.76,93,27,1.12,1628039327
Mayumba,GA,-3.432,10.6554,72.48,94,10,6.4,1628039328
Tevriz,RU,57.509,72.4042,56.62,97,78,4.56,1628039328
São Félix do Xingu,BR,-6.6447,-51.995,74.08,40,60,2.64,1628039328
Gemena,CD,3.25,19.7667,69.93,92,52,2.75,1628039328
Harlingen,US,26.1906,-97.6961,86.9,73,1,9.22,1628039153
Emba,KZ,48.8264,58.1442,78.98,24,10,2.51,1628039329
Mangan,IN,27.5167,88.5333,76.15,95,100,0.87,1628039329
Winchester,GB,51.0651,-1.3187,58.6,92,55,2.86,1628039329
Novyy Svit,UA,47.8059,38.0211,68.07,84,14,6.38,1628039330
Sosenskiy,RU,54.059,35.9623,49.71,85,7,5.17,1628039330
Lowicz,PL,52.1071,19.9453,62.26,89,92,3.47,1628039330
Kutum,SD,14.2,24.6667,71.53,75,25,10.25,1628039331
Crossville,US,35.949,-85.0269,72.32,71,1,1.01,1628039331
Yokadouma,CM,3.5167,15.05,68.47,96,100,2.1,1628039331
Medina,SA,24.4686,39.6142,91.83,17,0,4.61,1628039308
Mānsa,IN,29.9833,75.3833,82.81,74,91,7.09,1628039332
Rockland,US,41.1668,-74.0496,72.45,83,100,1.7,1628039332
Bela Vista,BR,-22.1089,-56.5211,59.81,31,99,3.44,1628039034
Diamantino,BR,-14.4086,-56.4461,74.55,37,100,4.79,1628039332
Bahía Honda,CU,22.9036,-83.1592,79.79,81,100,2.24,1628039333
Gravdal,NO,68.1214,13.5031,50.97,87,100,8.68,1628039333
Micheweni,TZ,-4.9667,39.8333,74.21,84,15,10.71,1628039333
Pocinhos,BR,-7.0767,-36.0611,64.0,93,34,11.88,1628039334
Windsor,CA,42.3001,-83.0165,75.07,63,1,4.61,1628039334
Derzhavīnsk,KZ,51.1,66.3167,72.7,51,12,6.87,1628039334
Tanout,NE,14.9709,8.8879,86.9,49,6,12.28,1628039334
Medvezh'yegorsk,RU,62.9167,34.4667,51.35,91,100,13.69,1628039335
Lagunas,PE,-5.2269,-75.6753,73.53,60,4,1.74,1628039335
Gamba,GA,-2.65,10.0,76.48,76,99,7.99,1628039335
Willowmore,ZA,-33.2926,23.4895,52.61,26,0,3.27,1628039336
Synya,RU,65.3718,58.0387,59.85,81,97,4.29,1628039336
Porbandar,IN,21.6422,69.6093,81.36,85,100,19.75,1628039336
Alappuzha,IN,9.49,76.3264,77.95,82,27,7.52,1628039154
Ibrā’,OM,22.6906,58.5334,84.87,51,0,4.54,1628039337
Pokaran,IN,26.9167,71.9167,82.99,68,74,15.86,1628039337
Najrān,SA,17.4924,44.1277,78.22,56,72,8.25,1628039337
Oussouye,SN,12.485,-16.5469,78.04,88,100,4.59,1628039337
Edd,ER,13.9297,41.6925,90.54,66,99,7.56,1628039338
Leverkusen,DE,51.0333,7.0,61.05,95,92,0.94,1628039338
Øksfjord,NO,70.2396,22.3479,51.87,85,100,6.73,1628039338
Mungaa,TZ,-4.9667,34.8833,55.44,80,1,8.39,1628039339
Santiago,CL,-33.4569,-70.6483,62.85,46,0,5.75,1628039288
Lyaskelya,RU,61.7667,31.0167,50.18,82,50,10.02,1628039339
Aragarças,BR,-15.8975,-52.2508,72.66,39,99,3.8,1628039339
Jenison,US,42.9072,-85.792,72.32,72,100,3.87,1628039094
Ruswil,CH,47.0843,8.1265,57.45,97,90,0.0,1628039340
Chabahar,IR,25.2919,60.643,80.96,85,14,6.46,1628039340
Eišiškės,LT,54.1667,25.0,54.25,88,96,4.56,1628039340
Lambaréné,GA,-0.7001,10.2406,73.13,89,29,3.74,1628039341
Malindi,KE,-3.2175,40.1191,74.73,83,51,14.2,1628039341
Manturovo,RU,58.3353,44.7619,60.96,78,97,3.98,1628039341
Barreirinha,BR,-2.7933,-57.07,76.3,81,100,3.06,1628039342
Takoradze,GH,4.8845,-1.7554,75.85,91,100,8.52,1628039337
Samandağ,TR,36.0842,35.9771,81.12,61,0,2.86,1628039342
West Bay,KY,19.3667,-81.4167,84.0,85,20,1.99,1628039342
Capoterra,IT,39.1763,8.9718,83.61,45,0,9.22,1628039343
Marawi,PH,7.9986,124.2928,75.65,60,78,6.51,1628039343
Zambezi,ZM,-13.5432,23.1047,53.13,45,0,4.59,1628039344
Le Port,RE,-20.9373,55.2919,64.4,69,9,6.98,1628039071
Caravelas,BR,-17.7125,-39.2481,68.41,83,86,5.03,1628039344
Leh,IN,34.1667,77.5833,61.95,51,28,4.7,1628039344
Kindu,CD,-2.95,25.95,71.69,61,9,1.95,1628039345
Wala,CM,4.578,12.3154,67.33,99,100,1.79,1628039345
Gurupi,BR,-11.7292,-49.0686,74.14,33,1,3.85,1628039345
Mezen',RU,65.8522,44.24,56.75,82,0,8.86,1628039346
Ust'-Ishim,RU,57.6935,71.1665,57.15,93,100,4.07,1628039346
Djibo,BF,14.1022,-1.6306,81.07,60,64,4.36,1628039346
Lieksa,FI,63.3167,30.0167,52.14,82,100,20.6,1628039347
Vavuniya,LK,8.7514,80.4971,78.28,81,100,8.19,1628039347
Carbonia,IT,39.1672,8.5222,83.05,58,100,4.81,1628039347
Monte Alegre,BR,-2.0078,-54.0692,76.41,70,94,2.91,1628039347
Sault Ste. Marie,CA,46.5168,-84.3333,70.36,64,40,0.0,1628039258
Matara,LK,5.9485,80.5353,77.86,87,100,10.04,1628039348
Nguru,NG,12.8791,10.4526,80.82,69,22,9.66,1628039348
Kabare,CD,-2.4683,28.8242,60.53,73,94,0.34,1628039348
Clarence Town,AU,-32.5833,151.7833,59.86,52,9,18.59,1628039349
Constitución,CL,-35.3333,-72.4167,52.72,79,0,4.76,1628039156
Neuquén,AR,-38.9516,-68.0591,53.49,62,0,4.61,1628039349
Natitingou,BJ,10.3042,1.3796,70.88,87,100,3.4,1628039350
Thinadhoo,MV,0.5333,72.9333,82.02,75,100,8.99,1628039350
Mocuba,MZ,-16.8392,36.9856,58.15,92,0,3.15,1628039350
Bubaque,GW,11.2833,-15.8333,79.79,82,100,8.66,1628039351
Jardim,BR,-21.4803,-56.1381,62.98,30,100,2.93,1628039351
Sisimiut,GL,66.9395,-53.6735,49.15,86,56,4.45,1628039351
Leskovac,RS,42.9981,21.9461,74.61,50,0,2.17,1628039351
Vohibinany,MG,-17.35,49.0333,62.6,99,36,1.61,1628039352
Benghazi,LY,32.1167,20.0667,84.07,66,0,14.43,1628039352
Chapais,CA,49.7834,-74.8492,48.27,75,25,4.41,1628039352
Ambovombe,MG,-25.1667,46.0833,63.14,76,20,16.49,1628039353
Salta,AR,-24.7859,-65.4117,58.57,49,75,1.99,1628039107
Yenagoa,NG,4.9247,6.2642,75.22,92,96,3.6,1628039353
Landskrona,SE,55.8708,12.8302,59.95,78,7,7.78,1628039353
Tocache,PE,-8.1842,-76.5125,69.78,81,37,0.54,1628039354
Camocim,BR,-2.9022,-40.8411,76.35,81,27,5.77,1628039354
Havøysund,NO,70.9963,24.6622,49.08,84,100,7.96,1628039354
Mehamn,NO,71.0357,27.8492,46.13,84,100,17.45,1628039355
Natal,BR,-5.795,-35.2094,74.05,88,0,6.91,1628039279
Luena,AO,-11.7833,19.9167,52.84,50,0,3.78,1628039056
Llanes,ES,43.4198,-4.7549,67.86,86,100,6.44,1628039355
Yershov,RU,51.3513,48.2766,74.07,47,100,8.5,1628039347
Goundam,ML,16.4145,-3.6708,88.39,48,100,9.13,1628039355
Baghdad,IQ,33.3406,44.4009,91.31,33,6,4.61,1628039356
Tafresh,IR,34.692,50.013,69.12,30,57,6.67,1628039356
Tutóia,BR,-2.7619,-42.2744,77.7,81,10,6.26,1628039356
Nizhniy Baskunchak,RU,48.2198,46.8311,82.18,22,11,10.22,1628039357
Bogalusa,US,30.791,-89.8487,79.75,89,90,3.44,1628039357
Bonga,ET,7.2833,36.2333,57.4,92,98,1.9,1628039357
Baharly,TM,38.4362,57.4316,87.98,19,4,8.05,1628039357
Koindu,GN,8.4386,-10.3253,68.16,99,97,2.86,1628039358
Baní,DO,18.2833,-70.3333,77.59,85,35,6.78,1628039135
Priyutovo,RU,53.9,53.9333,71.19,41,32,4.59,1628039358
Radishchevo,RU,52.85,47.8833,69.49,74,100,5.19,1628039358
Piedecuesta,CO,6.9879,-73.0495,69.12,89,100,4.54,1628039359
Atbasar,KZ,51.8,68.3333,65.75,78,10,6.8,1628039359
Melito di Porto Salvo,IT,37.9222,15.7714,85.08,41,2,4.61,1628039359
Balvi,LV,57.1313,27.2658,52.18,86,73,3.62,1628039360
Achim,DE,53.0112,9.033,61.11,82,30,8.05,1628039360
Bracebridge,CA,45.0334,-79.3163,69.37,74,86,3.87,1628039340
Isfahan,IR,32.6572,51.6776,60.44,18,98,8.61,1628039360
Sergeevka,KZ,53.88,67.4158,64.11,82,1,5.08,1628039361
Ambilobe,MG,-13.2,49.05,70.45,77,100,2.46,1628039361
Hūn,LY,29.1268,15.9477,84.56,30,0,3.74,1628039361
Holme,DK,56.1138,10.1725,51.75,89,13,6.58,1628039361
Veshkayma,RU,54.05,47.1333,63.45,94,100,3.78,1628039362
Rokytne,UA,51.2796,27.214,56.25,70,100,4.36,1628039362
Laas,IT,46.6166,10.7002,57.02,92,100,3.04,1628039362
Šakiai,LT,54.9547,23.0358,55.65,75,100,0.98,1628039363
Assomada,CV,15.1,-23.6833,71.15,90,100,8.34,1628039363
Impfondo,CG,1.6381,18.0667,74.64,70,90,3.4,1628039363
Saint-Louis,SN,16.3333,-15.0,81.21,75,15,14.05,1628039364
Nizhniy Ufaley,RU,55.9153,59.9842,61.81,72,11,2.35,1628039364
Danilovka,RU,50.3557,44.1168,70.09,76,100,7.7,1628039364
Ordubad,AZ,38.9059,46.0234,69.89,40,3,6.58,1628039364
Dombarovskiy,RU,50.7587,59.5386,78.08,27,88,6.89,1628039365
Mikkeli,FI,61.6886,27.2723,48.31,87,0,5.75,1628039365
Agirish,RU,61.9247,63.0231,61.03,74,67,4.09,1628039365
Khanbari,NP,27.3747,87.2039,73.78,92,100,1.48,1628039366
Nyråd,DK,55.0051,11.9606,53.65,80,6,6.26,1628039366
Karaton,ID,-6.3424,106.1045,83.95,82,31,1.54,1628039366
Parfino,RU,57.9731,31.6481,50.16,92,30,4.54,1628039367
Tunceli,TR,39.1083,39.5471,76.06,49,3,6.64,1628039367
Itamarandiba,BR,-17.8572,-42.8589,57.61,77,81,2.42,1628039367
Garoowe,SO,8.4054,48.4845,76.46,61,9,28.12,1628039368
Betioky,MG,-23.7167,44.3833,58.57,85,0,8.43,1628039368
Johnstown,US,40.3267,-78.922,73.38,70,90,5.75,1628039272
Port Hawkesbury,CA,45.6169,-61.3485,67.59,81,100,1.99,1628039368
Madimba,TZ,-10.4,40.3333,68.09,82,0,9.17,1628039369
Serowe,BW,-22.3833,26.7167,49.17,85,0,5.7,1628039369
Tortolì,IT,39.9256,9.6572,73.98,70,93,2.21,1628039369
Mitsamiouli,KM,-11.3847,43.2844,75.11,59,0,1.19,1628039370
Oddur,SO,4.1213,43.8894,69.69,79,94,14.97,1628039370
Mahabalipuram,IN,12.6264,80.1722,84.25,63,100,12.35,1628039370
Drezdenko,PL,52.8383,15.8308,62.64,70,100,3.91,1628039370
Ballina,AU,-28.8667,153.5667,64.58,34,0,9.75,1628039371
Progreso,MX,21.2833,-89.6667,77.11,79,5,16.13,1628039371
Arlit,NE,18.7369,7.3853,96.93,18,20,7.7,1628039371
Irecê,BR,-11.3042,-41.8558,65.26,57,22,7.65,1628039372
Gbarnga,LR,6.9956,-9.4722,68.5,99,35,1.81,1628039372
Giżycko,PL,54.0381,21.7644,54.0,86,100,1.79,1628039372
Røros,NO,62.5747,11.3842,30.04,93,20,2.3,1628039373
Nizhnevartovsk,RU,60.9344,76.5531,59.02,100,0,2.24,1628039373
Gouré,NE,13.9835,10.2704,80.02,61,3,11.43,1628039373
Görele,TR,41.0308,39.0031,76.44,85,0,2.46,1628039373
Rafrāf,TN,37.1904,10.1837,89.91,56,40,15.73,1628039374
Ambikāpur,IN,23.1167,83.2,73.04,91,85,4.12,1628039374
Ozar,IN,20.1,73.9333,72.79,89,100,17.45,1628039374
Muyezerskiy,RU,63.9333,31.65,46.92,93,100,16.24,1628039375
Gondā City,IN,27.1333,81.9333,79.79,85,91,4.27,1628039375
Sohag,EG,26.557,31.6948,89.55,19,6,2.93,1628039375
