City,Country,Lat,Lng,Max Temp,Humidity,Cloudiness,Wind Speed,Date
Petropavlovka,RU,50.6114,105.3196,64.08,72,99,2.46,1627780398
East London,ZA,-33.0153,27.9116,66.97,24,97,6.22,1627780398
Beyneu,KZ,45.3167,55.2,82.15,18,0,8.86,1627780398
Muros,ES,42.7762,-9.0603,61.23,90,81,3.09,1627780398
Pangnirtung,CA,66.1451,-65.7125,50.59,68,100,4.12,1627780276
Shelburne,CA,44.0787,-80.2041,62.49,70,100,5.23,1627780399
Lethem,GY,3.3803,-59.7968,75.02,90,100,4.12,1627780399
Quatre Cocos,MU,-20.2078,57.7625,69.1,75,6,17.13,1627780399
Esim,GH,4.8699,-2.2405,75.87,88,100,5.88,1627780400
Port Elizabeth,ZA,-33.918,25.5701,60.01,36,62,5.1,1627780258
Ushuaia,AR,-54.8,-68.3,40.66,70,75,18.41,1627780209
Busselton,AU,-33.65,115.3333,46.09,80,94,31.59,1627780400
Vila Velha,BR,-20.3297,-40.2925,62.55,94,90,4.61,1627780400
Cape Town,ZA,-33.9258,18.4232,54.88,94,75,2.3,1627780150
Lüderitz,NA,-26.6481,15.1594,67.69,25,0,8.23,1627780401
Ahar,IR,38.4774,47.0699,64.65,82,18,4.21,1627780401
Hobyo,SO,5.3505,48.5268,75.65,79,66,21.32,1627780401
Mehamn,NO,71.0357,27.8492,47.57,96,100,1.1,1627780402
Sudak,UA,44.85,34.9667,75.22,59,0,3.02,1627780402
Kashgar,CN,39.4547,75.9797,75.96,35,100,5.32,1627780402
Arraial do Cabo,BR,-22.9661,-42.0278,66.38,64,100,12.41,1627780403
Korla,CN,41.7597,86.1469,73.09,26,0,18.5,1627780403
Nanortalik,GL,60.1432,-45.2371,47.41,82,100,10.65,1627780403
Dikson,RU,73.5069,80.5464,39.16,100,100,17.78,1627780403
Keetmanshoop,NA,-26.5833,18.1333,55.2,29,0,9.55,1627780404
Jamestown,US,42.097,-79.2353,63.72,82,1,6.91,1627780404
Noormarkku,FI,61.5927,21.8685,58.78,94,0,5.75,1627780404
Chitral,PK,35.8462,71.7858,76.46,65,99,0.4,1627780405
Qaanaaq,GL,77.484,-69.3632,41.5,89,100,2.86,1627780405
Havøysund,NO,70.9963,24.6622,45.48,84,100,5.06,1627780405
Hithadhoo,MV,-0.6,73.0833,80.64,74,100,4.72,1627780405
Constantine,DZ,36.365,6.6147,80.78,34,89,3.6,1627780406
Narsaq,GL,60.9167,-46.05,50.22,75,100,1.97,1627780406
Chui,UY,-33.6971,-53.4616,47.19,92,0,4.47,1627780406
Kargasok,RU,59.0556,80.8572,54.91,95,100,6.42,1627780407
Tchibanga,GA,-2.85,11.0333,67.48,91,5,3.33,1627780407
Cidreira,BR,-30.1811,-50.2056,57.22,85,100,15.28,1627780407
Saint George,US,37.1041,-113.5841,86.59,49,20,5.01,1627780364
Moundsville,US,39.9203,-80.7431,71.55,73,100,1.41,1627780408
Ilulissat,GL,69.2167,-51.1,53.62,54,100,9.22,1627780408
Tazovsky,RU,67.4667,78.7,50.74,85,100,5.97,1627780408
Maragogi,BR,-9.0122,-35.2225,74.86,85,74,13.58,1627780409
Punta Arenas,CL,-53.15,-70.9167,41.11,60,90,3.44,1627780409
Castro,BR,-24.7911,-50.0119,46.56,86,100,6.22,1627780409
Kruisfontein,ZA,-34.0033,24.7314,55.36,26,86,7.09,1627780409
Saint-Augustin,CA,51.226,-58.6502,54.99,86,100,18.28,1627780410
Zhezkazgan,KZ,47.8043,67.7144,76.93,25,7,5.23,1627780410
Vardø,NO,70.3705,31.1107,48.18,92,99,11.81,1627780410
Harlingen,US,26.1906,-97.6961,89.35,49,1,12.66,1627780323
Koindu,GN,8.4386,-10.3253,68.81,99,99,3.53,1627780411
Jega,NG,12.2175,4.3792,77.7,82,100,5.86,1627780411
Kambove,CD,-10.8764,26.5969,54.52,61,0,6.08,1627780411
Berlevåg,NO,70.8578,29.0864,47.97,94,100,7.76,1627780412
Ostrovnoy,RU,68.0531,39.5131,45.09,95,37,5.37,1627780412
Tessalit,ML,20.1986,1.0114,90.9,33,100,10.38,1627780412
Abu Dhabi,AE,24.4667,54.3667,89.62,89,38,4.61,1627780362
Port Alfred,ZA,-33.5906,26.891,65.14,30,68,8.99,1627780413
Mbandaka,CD,0.0487,18.2603,73.22,72,100,3.31,1627780413
Mahébourg,MU,-20.4081,57.7,69.26,76,16,17.43,1627780413
Krasnoarmeysk,RU,51.0239,45.6969,70.29,64,72,3.89,1627780414
Córdoba,AR,-31.4135,-64.1811,51.76,37,0,1.01,1627780302
Torbay,CA,47.6666,-52.7314,61.68,86,33,19.28,1627780414
Laguna,US,38.421,-121.4238,99.91,35,1,5.99,1627780414
Olafsvik,IS,64.8945,-23.7142,53.83,94,99,7.05,1627780415
Tabory,RU,58.5198,64.5495,60.22,98,100,6.6,1627780415
Najrān,SA,17.4924,44.1277,76.8,61,74,8.57,1627780415
Bathsheba,BB,13.2167,-59.5167,83.01,78,40,16.11,1627780415
Kokkola,FI,63.8385,23.1307,58.93,94,64,1.01,1627780416
Mar del Plata,AR,-38.0023,-57.5575,49.12,28,7,8.99,1627780119
Longyearbyen,SJ,78.2186,15.6401,44.44,70,75,10.36,1627780416
Bluefields,NI,12.0137,-83.7635,78.17,92,27,9.73,1627780416
Agra,IN,27.1833,78.0167,82.78,80,12,6.51,1627780417
The Valley,AI,18.217,-63.0578,82.81,81,0,16.96,1627780154
Hermanus,ZA,-34.4187,19.2345,54.81,90,40,7.67,1627780417
Riyadh,SA,24.6877,46.7219,89.74,15,11,9.78,1627780248
Richards Bay,ZA,-28.783,32.0377,58.06,85,0,8.1,1627780418
Pauini,BR,-7.7136,-66.9764,71.42,46,12,2.37,1627780274
Rio Branco,BR,-9.9747,-67.81,68.61,77,0,2.3,1627780418
George Town,MY,5.4112,100.3354,80.53,87,40,2.3,1627780290
Bredasdorp,ZA,-34.5322,20.0403,54.28,90,99,4.85,1627780418
São João da Barra,BR,-21.6403,-41.0511,65.93,64,81,10.33,1627780419
Mittweida,DE,50.9833,12.9833,61.9,90,100,5.3,1627780419
Mongo,TD,12.1844,18.693,75.83,88,100,3.04,1627780419
Leh,IN,34.1667,77.5833,61.14,62,92,4.38,1627780420
Lagoa,PT,39.05,-27.9833,70.34,89,100,10.65,1627780420
Chapais,CA,49.7834,-74.8492,53.4,69,93,5.08,1627780420
Husavik,IS,66.0449,-17.3389,53.47,71,100,1.83,1627780421
Ilhabela,BR,-23.7781,-45.3581,60.1,84,100,4.83,1627780421
Bitkine,TD,11.9801,18.2138,73.53,87,100,5.57,1627780421
Cayenne,GF,4.9333,-52.3333,83.08,79,0,1.01,1627780421
Porbandar,IN,21.6422,69.6093,81.27,84,100,22.75,1627780422
Henties Bay,NA,-22.116,14.2845,75.85,31,0,12.15,1627780422
Hualmay,PE,-11.0964,-77.6139,63.72,83,21,9.4,1627780422
Dingle,PH,10.9995,122.6711,86.16,71,34,13.49,1627780423
Buchmany,UA,51.0689,28.0421,64.17,94,100,1.48,1627780423
Upernavik,GL,72.7868,-56.1549,43.23,79,99,2.46,1627780404
Neochori,GR,41.1833,23.25,83.21,41,0,3.42,1627780423
Iqaluit,CA,63.7506,-68.5145,54.09,51,71,11.5,1627780423
San Joaquin,US,37.9333,-121.3011,99.79,27,1,14.97,1627780424
Saint-Philippe,RE,-21.3585,55.7679,65.75,83,39,11.63,1627780424
Urucará,BR,-2.5364,-57.76,78.48,74,100,3.58,1627780424
Ponta do Sol,PT,32.6667,-17.1,71.71,77,3,7.63,1627780425
Jaicós,BR,-7.3592,-41.1378,72.73,73,49,11.59,1627780425
Vestmanna,FO,62.1564,-7.1664,45.52,87,90,8.05,1627780425
Kingsport,US,36.5484,-82.5618,78.55,70,40,4.61,1627780332
Nara,JP,34.6851,135.8049,89.96,51,30,1.36,1627780426
Padilla,CO,3.2204,-76.3139,70.95,81,26,4.21,1627780426
São Félix do Xingu,BR,-6.6447,-51.995,76.1,45,20,1.88,1627780426
Kirovsk,UA,48.6375,38.6428,69.73,69,0,3.4,1627780427
Kuvshinovo,RU,57.0295,34.1725,55.87,92,100,5.01,1627780427
Kizilskoye,RU,52.7255,58.8937,67.28,67,17,7.25,1627780427
Três Lagoas,BR,-20.7511,-51.6783,62.28,31,100,5.17,1627780428
Carbonia,IT,39.1672,8.5222,81.84,49,100,3.49,1627780428
Lebu,CL,-37.6167,-73.65,47.25,84,3,15.88,1627780428
Birao,CF,10.2849,22.7882,71.89,97,100,5.1,1627780429
Tucuruí,BR,-3.7661,-49.6725,74.03,89,11,3.44,1627780429
Bambous Virieux,MU,-20.3428,57.7575,69.22,75,13,17.58,1627780429
Kiryat Gat,IL,31.61,34.7642,83.39,59,0,1.92,1627780429
Naples,IT,40.8333,14.25,82.15,80,0,1.01,1627780833
Sur,OM,22.5667,59.5289,87.17,61,51,9.62,1627780430
Hofn,IS,64.2539,-15.2082,51.37,90,23,6.53,1627780430
Bengkulu,ID,-3.8004,102.2655,77.0,85,12,3.09,1627780430
Tasiilaq,GL,65.6145,-37.6368,48.36,82,41,4.61,1627780431
Itaituba,BR,-4.2761,-55.9836,73.44,83,93,2.53,1627780431
Atasū,KZ,48.6814,71.6433,73.02,28,5,4.65,1627780431
Carutapera,BR,-1.195,-46.02,74.32,93,12,2.46,1627780432
Constitución,CL,-35.3333,-72.4167,51.84,77,0,5.37,1627780432
Mitha Tiwana,PK,32.2486,72.1108,88.57,62,0,6.08,1627780432
Severodvinsk,RU,64.5635,39.8302,57.31,97,100,5.61,1627780276
Bajil,YE,15.0584,43.2851,85.14,66,27,0.98,1627780433
Ouricuri,BR,-7.8825,-40.0817,70.11,80,79,12.26,1627780433
Kavaratti,IN,10.5669,72.642,81.66,79,17,16.53,1627780433
Santa Fe,AR,-31.6333,-60.7,57.0,44,0,1.01,1627780433
Maceió,BR,-9.6658,-35.7353,76.44,83,75,12.66,1627780201
Lerik,AZ,38.7726,48.4128,58.64,91,77,0.96,1627780434
Nur-Sultan,KZ,51.1801,71.446,64.35,68,0,4.47,1627780296
Valkeala,FI,60.9401,26.7979,57.6,100,20,6.91,1627780434
San Rafael,AR,-34.6177,-68.3301,49.33,54,51,4.5,1627780434
Lilongwe,MW,-13.9669,33.7873,56.89,84,81,7.16,1627780435
Manaus,BR,-3.1019,-60.025,81.1,78,40,6.91,1627780435
Ribeira Grande,PT,38.5167,-28.7,71.29,86,100,5.5,1627780435
Hong Kong,HK,22.2855,114.1577,90.97,85,100,1.01,1627780150
Inhambane,MZ,-23.865,35.3833,62.42,81,0,5.17,1627780436
Tupanciretã,BR,-29.0806,-53.8358,48.22,78,94,3.71,1627780436
Tonneins,FR,44.3921,0.3124,59.22,94,13,3.69,1627780436
Barvinkove,UA,48.9097,37.0205,69.33,61,0,4.27,1627780437
Mtwara,TZ,-10.2667,40.1833,68.31,89,2,8.41,1627780437
Kidal,ML,18.4411,1.4078,90.81,35,38,7.92,1627780437
Qeshm,IR,26.9581,56.2719,91.27,80,79,4.72,1627780438
Kapuskasing,CA,49.4169,-82.4331,59.09,88,75,5.75,1627780438
Barcelos,PT,41.5388,-8.6151,60.85,92,100,3.56,1627780438
Gamba,GA,-2.65,10.0,72.09,85,5,3.06,1627780438
Igarka,RU,67.4667,86.5833,53.89,71,100,12.33,1627780439
Tocopilla,CL,-22.092,-70.1979,63.03,71,4,10.25,1627780313
Baringo,KE,0.4667,35.9667,67.71,57,99,11.18,1627780439
Aksu,CN,41.1231,80.2644,76.08,29,63,1.39,1627780172
Garoowe,SO,8.4054,48.4845,77.02,43,100,13.67,1627780439
Jalu,LY,29.0331,21.5482,85.42,20,0,8.32,1627780440
Morant Bay,JM,17.8815,-76.4093,85.62,85,0,8.46,1627780440
Kutum,SD,14.2,24.6667,70.86,78,82,15.41,1627780440
San Rafael del Sur,NI,11.8485,-86.4384,81.5,72,100,13.65,1627780441
Paamiut,GL,61.994,-49.6678,44.83,87,20,0.38,1627780441
Qaqortoq,GL,60.7167,-46.0333,50.5,80,100,2.46,1627780441
Mocuba,MZ,-16.8392,36.9856,61.65,95,76,4.29,1627780442
Belmonte,BR,-15.8631,-38.8828,66.7,76,100,11.79,1627780442
San Andrés,CO,12.5847,-81.7006,82.29,85,86,22.35,1627780169
Namwala,ZM,-15.7504,26.4384,54.14,73,0,4.85,1627780442
Cabedelo,BR,-6.9811,-34.8339,72.27,83,25,17.07,1627780443
Lagunas,PE,-5.2269,-75.6753,70.66,72,1,2.39,1627780443
Cap Malheureux,MU,-19.9842,57.6142,69.48,75,0,4.0,1627780443
Vieste,IT,41.8825,16.175,83.97,50,1,7.11,1627780444
Codrington,AU,-38.2667,141.9667,51.21,80,71,11.56,1627780444
Shubarkuduk,KZ,49.1447,56.4872,74.66,26,0,4.27,1627780444
Pargas,FI,60.3067,22.301,62.11,84,90,11.39,1627780445
Rāzole,IN,16.4833,81.8333,82.69,70,100,8.61,1627780445
Barranca,PE,-10.75,-77.7667,63.12,83,57,7.92,1627780445
Souillac,MU,-20.5167,57.5167,69.37,79,21,14.97,1627780446
Gbarnga,LR,6.9956,-9.4722,70.3,100,100,2.33,1627780446
Pisco,PE,-13.7,-76.2167,62.65,82,20,10.36,1627780446
Koslan,RU,63.4564,48.8989,54.84,99,100,2.44,1627780446
Vila Franca do Campo,PT,37.7167,-25.4333,70.21,90,100,4.21,1627780447
Nantucket,US,41.2835,-70.0995,68.09,72,1,9.22,1627780172
Kyabé,TD,9.4515,18.9449,70.77,93,100,3.47,1627780447
Borås,SE,57.721,12.9401,58.62,70,100,12.75,1627780447
Río Gallegos,AR,-51.6226,-69.2181,44.65,42,0,28.77,1627780300
Montepuez,MZ,-13.1256,38.9997,63.28,79,2,9.4,1627780448
Comodoro Rivadavia,AR,-45.8667,-67.5,48.06,29,0,13.8,1627780448
Rocha,UY,-34.4833,-54.3333,44.73,82,14,4.29,1627780448
Makar'yev,RU,57.8797,43.8069,56.32,87,3,6.53,1627780449
Osypenko,UA,46.9136,36.8253,72.84,64,0,7.02,1627780449
Coyhaique,CL,-45.5752,-72.0662,30.15,93,0,1.14,1627780449
Kortkeros,RU,61.8106,51.5806,59.0,98,23,6.64,1627780450
Ahraura,IN,25.0167,83.0167,76.84,88,100,18.21,1627780450
Grand Gaube,MU,-20.0064,57.6608,69.39,75,0,4.0,1627780450
Kathmandu,NP,27.7167,85.3167,73.62,88,75,3.44,1627780450
Pastos Bons,BR,-6.6017,-44.0767,76.8,58,68,10.94,1627780451
Mweka,CD,-4.85,21.5667,66.25,34,89,2.95,1627780451
Caconda,AO,-13.7333,15.0667,52.41,36,0,5.06,1627780451
Coquimbo,CL,-29.9533,-71.3436,49.73,87,5,6.91,1627780373
Makkah al Mukarramah,SA,21.4267,39.8261,86.34,55,6,17.96,1627780452
Boali,CF,4.8005,18.1275,70.27,97,100,2.15,1627780452
Turbat,PK,26.0023,63.044,83.66,71,13,3.02,1627780452
Faya,SA,18.3851,42.4509,61.32,72,28,5.68,1627780453
São Filipe,CV,14.8961,-24.4956,75.45,86,75,7.45,1627780453
Tambo,PE,-14.8,-73.9167,36.01,61,8,0.58,1627780453
Nikšić,ME,42.7731,18.9445,69.96,47,0,2.82,1627780454
Ambilobe,MG,-13.2,49.05,61.97,70,5,4.05,1627780454
Saldanha,ZA,-33.0117,17.9442,57.6,65,100,4.16,1627780454
Ratnagiri,IN,16.9833,73.3,79.79,83,100,15.64,1627780455
Yar-Sale,RU,66.8333,70.8333,49.98,80,83,7.85,1627780455
Kisangani,CD,0.5167,25.2,70.77,94,91,3.47,1627780455
Kungälv,SE,57.871,11.9805,60.19,74,94,3.0,1627780456
Praia,CV,14.9215,-23.5087,77.54,78,75,11.5,1627780456
Ayagoz,KZ,47.9714,80.4392,67.82,20,49,2.15,1627780456
Maicao,CO,11.3832,-72.2432,82.02,74,0,15.55,1627780457
Moroto,UG,2.5345,34.6666,65.14,85,100,4.59,1627780457
Klaksvík,FO,62.2266,-6.589,47.32,78,100,12.21,1627780457
Sungurlu,TR,40.1675,34.3739,65.35,56,0,4.36,1627780457
Road Town,VG,18.4167,-64.6167,83.19,80,9,19.28,1627780458
Carnarvon,AU,-24.8667,113.6333,59.07,56,90,5.75,1627780458
Camacha,PT,33.0833,-16.3333,67.42,68,75,9.22,1627780458
Foumban,CM,5.7291,10.9001,62.98,96,100,1.57,1627780459
Sayyan,YE,15.1718,44.3244,62.51,68,100,4.72,1627780459
Bolobo,CD,-2.1667,16.2333,72.81,53,78,1.41,1627780459
Basoko,CD,1.2391,23.616,70.68,96,100,4.61,1627780460
Rūdbār,AF,30.15,62.6,80.78,19,0,14.67,1627780460
Tobol'sk,RU,58.2,68.2667,55.67,90,22,7.29,1627780460
Kholmy,UA,51.871,32.6006,66.33,68,56,6.91,1627780460
Wad Rāwah,SD,15.1603,33.1397,76.24,75,100,16.24,1627780461
Omboué,GA,-1.5746,9.2618,73.27,81,95,5.23,1627780461
Havelock,US,34.8791,-76.9013,80.83,90,51,4.0,1627780461
Harper,LR,4.375,-7.7169,76.62,83,100,11.3,1627780462
Florø,NO,61.5996,5.0328,55.36,67,75,16.11,1627780462
Clyde River,CA,70.4692,-68.5914,37.85,92,100,4.29,1627780462
Teresina,BR,-5.0892,-42.8019,80.31,65,0,4.61,1627780390
Saquena,PE,-4.6667,-73.5167,72.07,69,0,1.12,1627780463
Oranjemund,NA,-28.55,16.4333,66.0,28,4,4.29,1627780463
Werda,BW,-25.2667,23.2833,48.33,54,0,6.26,1627780463
City of San Pedro,PH,14.35,121.0167,87.1,70,100,16.24,1627780463
Dakar,SN,14.6937,-17.4441,79.68,85,98,12.62,1627780221
Pechenga,RU,69.5259,31.1703,49.06,91,100,2.59,1627780464
Puerto Carreño,CO,6.189,-67.4859,74.66,90,100,3.89,1627780464
Porto Velho,BR,-8.7619,-63.9039,71.65,68,0,0.0,1627780464
Maniitsoq,GL,65.4167,-52.9,50.13,75,96,7.76,1627780465
Samandağ,TR,36.0842,35.9771,81.12,79,0,3.6,1627780465
Msanga,TZ,-6.05,36.0333,57.56,83,43,3.24,1627780465
Maxixe,MZ,-23.8597,35.3472,61.0,84,0,4.43,1627780466
Marau,BR,-28.4492,-52.2,48.2,70,100,4.18,1627780466
Akot,IN,21.0964,77.0586,76.78,82,100,15.35,1627780466
Buchanan,LR,5.8808,-10.0467,75.88,87,100,7.9,1627780467
Sokolo,ML,14.7328,-6.1219,82.08,68,100,11.83,1627780467
Grand-Santi,GF,4.25,-54.3833,73.13,98,97,2.13,1627780467
Troitsko-Pechorsk,RU,62.7084,56.1964,58.51,94,99,7.09,1627780467
Brae,GB,60.3964,-1.353,49.91,75,97,18.19,1627780468
João Pinheiro,BR,-17.7425,-46.1725,64.6,52,91,8.97,1627780468
Daşoguz,TM,41.8363,59.9666,67.95,40,0,9.22,1627780468
Zemio,CF,5.0314,25.1361,66.4,98,100,3.02,1627780469
Hūn,LY,29.1268,15.9477,85.51,18,0,6.67,1627780469
Sakakah,SA,29.9697,40.2064,84.45,14,0,5.91,1627780469
Aasiaat,GL,68.7098,-52.8699,39.88,94,100,7.45,1627780469
Nobres,BR,-14.7203,-56.3275,71.74,30,63,0.76,1627780470
Zabid,YE,14.1951,43.3152,84.33,68,31,4.05,1627780470
Mogadishu,SO,2.0371,45.3438,74.91,86,93,18.3,1627780470
Anloga,GH,5.7947,0.8973,76.28,89,23,9.46,1627780471
Puerto Rondón,CO,6.2805,-71.1,74.43,88,41,3.8,1627780471
Praia da Vitória,PT,38.7333,-27.0667,72.75,86,99,9.46,1627780471
Dubna,RU,56.7333,37.1667,57.07,88,100,4.94,1627780472
Saýat,TM,38.7839,63.8803,78.26,17,1,13.04,1627780472
Karasburg,NA,-28.0167,18.75,55.49,23,0,8.05,1627780472
Koutsouras,GR,35.0339,25.9469,85.93,39,0,14.76,1627780473
Palmeirais,BR,-5.9778,-43.0633,81.39,51,49,12.84,1627780473
Skotterud,NO,59.9828,12.1283,56.71,98,100,1.43,1627780473
Sirte,LY,31.2089,16.5887,84.07,41,0,3.98,1627780474
Platonovka,RU,52.7106,41.952,66.43,62,38,3.24,1627780474
Sarh,TD,9.1429,18.3923,70.97,93,100,2.26,1627780474
Matara,LK,5.9485,80.5353,77.49,88,57,9.46,1627780475
Coxim,BR,-18.5067,-54.76,71.08,31,10,6.24,1627780475
Caravelas,BR,-17.7125,-39.2481,68.88,72,94,10.36,1627780475
Smolenskaya Oblast’,RU,55.0,33.0,61.39,73,100,5.57,1627780475
Honningsvåg,NO,70.9821,25.9704,45.64,92,100,8.7,1627780476
Touros,BR,-5.1989,-35.4608,76.1,84,51,15.35,1627780476
Menzel Salem,TN,35.8567,8.4765,78.53,39,3,3.47,1627780476
Chipinge,ZW,-20.1883,32.6236,48.4,88,0,2.51,1627780477
Usinsk,RU,65.9939,57.5281,51.08,95,100,12.35,1627780477
Pangody,RU,65.85,74.4859,53.38,72,88,9.06,1627780477
Porto Belo,BR,-27.1578,-48.5531,60.1,86,100,2.35,1627780477
Cascais,PT,38.6979,-9.4215,63.52,73,99,10.0,1627780478
Philadelphia,US,39.9523,-75.1638,74.01,64,1,3.44,1627780301
Adeje,ES,28.1227,-16.726,72.01,62,0,7.0,1627780478
Nkongsamba,CM,4.9547,9.9404,65.66,98,100,2.17,1627780478
Gamboula,CF,4.1178,15.1393,67.39,99,100,2.98,1627780479
Mirandola,IT,44.8868,11.0662,80.76,85,100,5.97,1627780467
Lusambo,CD,-4.9667,23.45,67.55,41,41,3.22,1627780479
Mutoko,ZW,-17.397,32.2268,45.21,93,0,4.23,1627780479
Farsund,NO,58.0948,6.8047,55.06,87,99,25.43,1627780480
Basse-Pointe,MQ,14.8695,-61.115,80.65,43,0,14.56,1627780480
Aksarka,RU,66.5606,67.7975,50.23,77,100,5.57,1627780480
Jadu,LY,31.953,12.0261,84.13,18,0,10.58,1627780480
Turinsk,RU,58.0458,63.696,60.76,99,99,5.99,1627780481
Bilma,NE,18.6853,12.9164,90.91,30,1,11.52,1627780481
Adrar,MR,20.5022,-10.0711,82.99,56,78,24.7,1627780481
Tingi,TZ,-11.3,35.0333,57.88,81,79,5.55,1627780482
Bandarbeyla,SO,9.4942,50.8122,75.11,83,20,22.06,1627780482
Bay Roberts,CA,47.5999,-53.2648,62.44,86,51,8.99,1627780482
Kudahuvadhoo,MV,2.6708,72.8944,81.99,73,40,4.61,1627780483
Teruel,ES,40.6667,-0.6667,58.96,79,18,9.01,1627780483
Rawson,AR,-43.3002,-65.1023,44.06,47,0,15.17,1627780335
Sète,FR,43.4018,3.6966,67.86,68,100,22.46,1627780483
Saint-Louis,SN,16.3333,-15.0,79.32,67,99,14.72,1627780484
La Rioja,ES,42.25,-2.5,51.58,92,1,5.08,1627780484
Sanghar,PK,26.0466,68.9481,82.47,73,90,18.59,1627780484
Chittarkonda,IN,18.1167,82.0833,72.93,95,100,2.77,1627780485
Senador José Porfírio,BR,-2.5908,-51.9542,74.34,91,100,1.52,1627780485
Oistins,BB,13.0667,-59.5333,82.49,78,40,16.11,1627780485
Sainte-Adèle,CA,45.9501,-74.1325,65.66,74,99,4.59,1627780347
Malinovoye Ozero,RU,51.6753,79.7825,71.56,26,0,5.08,1627780485
Petrozavodsk,RU,61.7849,34.3469,54.95,93,5,6.87,1627780486
Chalmette,US,29.9427,-89.9634,84.2,79,1,1.01,1627780486
Cavalcante,BR,-13.7975,-47.4583,70.07,51,70,4.79,1627780486
Tafresh,IR,34.692,50.013,69.93,40,89,3.83,1627780487
Lyuban',BY,52.7985,28.0048,63.72,95,100,6.69,1627780487
Camaná,PE,-16.6228,-72.7111,62.44,81,70,8.55,1627780487
Alta Floresta,BR,-9.8756,-56.0861,73.0,37,8,4.7,1627780488
Alice Town,BS,25.7167,-79.3,85.48,68,5,11.54,1627780488
Akhmeta,GE,42.0311,45.2075,68.52,80,17,3.65,1627780488
Bonthe,SL,7.5264,-12.505,75.0,90,100,5.37,1627780489
Antalaha,MG,-14.9003,50.2788,66.45,78,60,8.19,1627780489
Sinnamary,GF,5.3833,-52.95,79.16,84,62,7.65,1627780489
Nybro,SE,56.7446,15.9071,59.05,96,15,8.37,1627780410
Ruska Poliana,UA,49.417,31.9201,70.77,62,21,6.2,1627780489
Pitimbu,BR,-7.4706,-34.8086,72.19,83,6,16.26,1627780490
Salalah,OM,17.0151,54.0924,77.09,100,90,5.75,1627780490
Diplo,PK,24.4667,69.584,82.42,76,100,22.62,1627780490
Colares,PT,38.7992,-9.4469,63.34,75,100,10.0,1627780491
Sombrio,BR,-29.1139,-49.6167,52.79,92,100,5.1,1627780491
Westport,US,41.1415,-73.3579,72.86,76,0,1.01,1627780491
Muzhi,RU,65.3667,64.6667,52.38,77,100,5.68,1627780492
Olinda,BR,-8.0089,-34.8553,76.73,73,40,14.97,1627780492
Port Shepstone,ZA,-30.7414,30.455,62.91,40,5,7.29,1627780492
Emba,KZ,48.8264,58.1442,76.51,11,1,5.14,1627780492
Puerto Madryn,AR,-42.7692,-65.0385,45.63,49,0,18.3,1627780458
Salinópolis,BR,-0.6136,-47.3561,76.53,88,49,7.9,1627780493
Huarmey,PE,-10.0681,-78.1522,64.78,83,34,10.63,1627780493
Bud,US,39.447,-86.1758,68.99,83,9,2.75,1627780494
Phalaborwa,ZA,-23.943,31.1411,56.16,60,0,5.03,1627780494
Altay,CN,47.8667,88.1167,64.36,46,50,2.28,1627780494
Amalāpuram,IN,16.5833,82.0167,82.78,69,100,7.96,1627780494
Aquiraz,BR,-3.9014,-38.3911,80.69,82,100,12.41,1627780495
Kismayo,SO,-0.3582,42.5454,74.75,84,91,18.1,1627780495
Sechura,PE,-5.5569,-80.8222,67.3,75,7,15.64,1627780495
São Paulo de Olivença,BR,-3.3783,-68.8725,70.88,68,18,0.85,1627780496
Dārāb,IR,28.7519,54.5444,89.17,28,99,2.24,1627780496
Taoudenni,ML,22.6783,-3.9836,100.4,14,3,5.91,1627780496
Bad Doberan,DE,54.1071,11.9005,62.01,90,100,15.32,1627780496
Zhangaözen,KZ,43.3,52.8,81.23,24,29,8.7,1627780497
Inongo,CD,-1.95,18.2667,69.3,59,10,5.61,1627780497
Mayumba,GA,-3.432,10.6554,71.89,88,2,3.67,1627780497
Umarkot,PK,25.3616,69.7362,82.71,75,100,20.54,1627780498
Port-Gentil,GA,-0.7193,8.7815,75.9,77,25,11.36,1627780498
Saint-Leu,RE,-21.15,55.2833,65.23,70,1,6.31,1627780498
Vestmannaeyjar,IS,63.4427,-20.2734,53.69,93,100,1.9,1627780499
Baraki Barak,AF,33.9675,68.9486,72.36,43,0,2.75,1627780499
Salym,RU,60.0625,71.4789,54.3,90,100,3.65,1627780500
Al Bardīyah,LY,31.7561,25.0865,78.93,82,0,17.81,1627780500
Capitão Poço,BR,-1.7464,-47.0594,70.72,97,100,4.09,1627780501
San Cristobal,VE,7.7669,-72.225,77.18,98,96,5.14,1627780501
Mitsamiouli,KM,-11.3847,43.2844,76.19,71,1,13.24,1627780501
Departamento de Maldonado,UY,-34.6667,-54.9167,47.59,84,14,3.89,1627780501
Houma,US,29.5958,-90.7195,82.98,85,1,0.0,1627780502
Grindavik,IS,63.8424,-22.4338,53.56,100,90,9.22,1627780502
Deep River,CA,46.1001,-77.4995,58.42,98,100,1.74,1627780502
Bereda,ES,43.2686,-7.5406,56.91,96,48,2.06,1627780503
Mwinilunga,ZM,-11.7358,24.4293,55.4,59,0,8.75,1627780503
Campo Verde,BR,-20.4167,-54.0667,67.21,37,100,6.93,1627780504
Calatayud,ES,41.3535,-1.6432,68.58,71,10,2.98,1627780504
Jimma,ET,7.6667,36.8333,58.46,98,100,1.14,1627780504
Santa Maria da Vitória,BR,-13.3947,-44.1886,70.43,61,11,9.91,1627780505
Bodden Town,KY,19.2833,-81.25,84.2,88,20,1.99,1627780505
Sambava,MG,-14.2667,50.1667,65.98,80,58,12.17,1627780505
Syedove,UA,47.0768,38.156,73.0,65,0,7.09,1627780215
Porangatu,BR,-13.4408,-49.1486,79.59,37,90,4.7,1627780506
Catabola,AO,-12.15,17.2833,52.09,41,0,3.98,1627780506
Corinth,GR,37.9407,22.9573,89.69,52,0,3.83,1627780506
Olonets,RU,60.9847,32.9698,57.02,94,41,4.92,1627780507
Supe,PE,-10.8,-77.7333,63.66,83,43,8.16,1627780507
Salamiyah,SY,35.0113,37.0532,73.72,61,0,6.2,1627780507
Cravo Norte,CO,6.3017,-70.2041,75.11,88,22,3.04,1627780508
Bara,NG,10.3744,10.7288,71.8,96,100,5.97,1627780508
Tocache,PE,-8.1842,-76.5125,70.93,83,49,1.54,1627780508
Goose Creek,US,32.981,-80.0326,84.09,89,75,1.99,1627780509
Nibbar,TN,36.2941,8.7666,80.22,40,11,2.53,1627780509
Kontagora,NG,10.3999,5.4695,72.82,91,100,3.67,1627780509
Ancud,CL,-41.8697,-73.8203,36.93,82,100,2.42,1627780510
Falmouth,GB,50.1544,-5.0711,59.9,100,77,8.86,1627780510
Kindu,CD,-2.95,25.95,70.47,44,91,2.71,1627780510
Esil,KZ,51.9556,66.4042,71.28,67,100,6.02,1627780511
Benguela,AO,-12.5763,13.4055,69.64,87,0,3.56,1627780511
Portel,BR,-1.9356,-50.8211,73.76,96,99,2.17,1627780511
Cockburn Town,TC,21.4612,-71.1419,82.47,80,7,20.02,1627780511
Lawrenceville,US,33.9562,-83.988,85.12,69,1,3.44,1627780245
Raudeberg,NO,61.9875,5.1352,54.27,79,92,27.58,1627780512
Lerwick,GB,60.1545,-1.1494,50.0,77,61,19.37,1627780512
Tuscaloosa,US,33.2098,-87.5692,81.21,87,1,3.44,1627780671
Nizwá,OM,22.9333,57.5333,85.8,55,56,1.54,1627780513
Porto-Novo,BJ,6.4965,2.6036,75.07,90,28,5.82,1627780513
Remedios,CU,22.4947,-79.5458,77.92,85,7,9.37,1627780513
Dekar,BW,-21.5333,21.9333,48.4,50,0,8.59,1627780514
Domoni,KM,-12.2569,44.5319,75.29,70,0,13.96,1627780514
Mindelo,CV,16.8901,-24.9804,76.55,73,75,12.66,1627780514
Tacarigua,VE,10.0862,-67.9198,70.84,96,16,2.71,1627780515
Rørvik,NO,64.8621,11.2373,52.39,75,100,11.54,1627780515
Viedma,AR,-40.8135,-62.9967,41.41,70,0,3.33,1627780515
Surgut,RU,61.25,73.4167,50.18,100,40,0.0,1627780380
St. George's,GD,12.0564,-61.7485,82.08,83,20,14.97,1627780432
At-Bashi,KG,41.1702,75.8106,57.52,40,8,2.19,1627780516
Inta,RU,66.0317,60.1659,52.23,91,100,17.45,1627780516
Vangaindrano,MG,-23.35,47.6,61.36,81,28,0.96,1627780516
Damietta,EG,31.4165,31.8133,79.92,65,0,3.33,1627780517
Antofagasta,CL,-23.65,-70.4,56.48,84,59,3.74,1627780517
Sinnai,IT,39.3042,9.2036,82.51,70,0,13.8,1627780517
Odesskoye,RU,54.2111,72.9651,66.38,74,100,1.61,1627780518
Porto Walter,BR,-8.2686,-72.7439,70.03,63,0,1.61,1627780518
Puri,IN,19.8,85.85,84.38,78,100,10.8,1627780518
Shakhtinsk,KZ,49.71,72.5872,57.76,35,2,7.45,1627780518
Traverse City,US,44.7631,-85.6206,69.94,78,90,5.75,1627780469
Verkhnyaya Sinyachikha,RU,57.976,61.6673,61.02,97,94,5.37,1627780519
Bāgeshwar,IN,29.85,79.7667,71.62,92,50,1.3,1627780519
Agustin Codazzi,CO,10.0341,-73.2361,81.82,67,20,5.53,1627780519
Conceição do Araguaia,BR,-8.2578,-49.2647,82.31,35,100,1.66,1627780520
Orán,AR,-23.1322,-64.326,59.38,40,64,2.62,1627780520
Lukhovitsy,RU,54.9728,39.0361,59.97,75,100,5.75,1627780520
Abu Kamal,SY,34.4506,40.9171,89.94,24,0,10.76,1627780521
Bonavista,CA,48.6499,-53.1147,62.11,85,4,22.62,1627780521
Saint Anthony,US,45.0205,-93.218,82.02,45,1,5.99,1627780521
Tolbazy,RU,54.0241,55.8825,63.36,88,5,5.37,1627780521
Dzilam González,MX,21.2833,-88.9333,77.23,92,95,7.38,1627780522
Shchigry,RU,51.8755,36.9043,60.62,71,27,3.67,1627780522
Pitanga,BR,-24.7572,-51.7614,51.64,54,100,5.53,1627780522
Acarí,PE,-15.4311,-74.6158,66.87,68,59,4.21,1627780523
Chingirlau,KZ,51.095,54.0814,73.45,58,12,5.53,1627780523
Goderich,CA,43.7501,-81.7165,71.91,88,98,0.0,1627780513
Lima,PE,-12.0432,-77.0282,61.05,85,90,6.91,1627780454
Tombouctou,ML,20.0,-3.0,94.39,30,54,12.21,1627780523
Nioki,CD,-2.7167,17.6833,72.57,51,33,2.57,1627780524
Øksfjord,NO,70.2396,22.3479,46.47,93,100,3.76,1627780524
Tshikapa,CD,-6.4167,20.8,69.4,32,2,2.86,1627780524
Vengerovo,RU,55.6848,76.7471,59.52,89,8,6.69,1627780525
Semey,KZ,50.4111,80.2275,61.02,48,0,6.71,1627780525
Goya,AR,-29.14,-59.2626,53.02,60,0,4.47,1627780255
Aracaju,BR,-10.9111,-37.0717,76.95,78,75,14.97,1627780525
Marrakesh,MA,31.6315,-8.0083,69.87,64,0,8.05,1627780526
Nador,MA,35.174,-2.9287,75.45,38,0,14.97,1627780526
Kananga,CD,-5.8958,22.4178,67.66,30,7,4.07,1627780526
Nikki,BJ,9.9401,3.2108,71.29,95,100,4.68,1627780527
Calabozo,VE,8.9242,-67.4293,73.9,95,22,3.33,1627780527
Nikolskoye,RU,59.7035,30.7861,60.8,98,37,5.73,1627780527
Stokmarknes,NO,68.5646,14.9108,47.5,82,99,4.18,1627780528
Iracoubo,GF,5.4802,-53.2011,79.05,84,47,7.87,1627780528
Paita,PE,-5.0892,-81.1144,66.47,82,5,16.67,1627780528
São João da Ponte,BR,-15.9292,-44.0078,61.93,67,70,10.85,1627780528
Sovetskiy,RU,61.3614,63.5842,56.88,97,100,8.68,1627780529
Puerto Nariño,CO,-3.7703,-70.3831,73.35,65,10,0.92,1627780519
Serebryansk,KZ,49.6925,83.2892,53.15,56,75,1.88,1627780529
Tiassalé,CI,5.8983,-4.8283,71.78,99,100,2.66,1627780529
Soyo,AO,-6.1349,12.3689,73.06,80,87,5.7,1627780530
Teguise,ES,29.0605,-13.564,66.42,83,0,23.02,1627780530
Port Perry,CA,44.1068,-78.9444,67.06,92,100,4.59,1627780513
Khanbari,NP,27.3747,87.2039,74.23,92,66,0.11,1627780530
Kilindoni,TZ,-7.9139,39.6668,75.6,79,44,18.79,1627780531
San Miguel de Cozumel,MX,20.5083,-86.9458,86.11,84,20,4.0,1627780531
General Roca,AR,-39.0333,-67.5833,43.2,51,0,8.5,1627780531
Rafaela,AR,-31.2503,-61.4867,52.0,45,0,5.21,1627780532
Borūjerd,IR,33.8973,48.7516,72.0,18,95,2.04,1627780532
La Santisima Trinidad,BO,-14.8333,-64.9,69.22,45,2,1.39,1627780532
Cuamba,MZ,-14.8031,36.5372,59.07,90,15,7.2,1627780532
Malanje,AO,-9.5402,16.341,65.1,32,0,2.95,1627780533
Guajará,BR,-2.9667,-57.6667,78.28,74,100,3.09,1627780533
Sisimiut,GL,66.9395,-53.6735,50.16,74,62,2.53,1627780533
Lomovka,RU,53.9194,58.3672,63.52,92,76,4.12,1627780534
Sørland,NO,67.667,12.6934,49.5,75,100,14.72,1627780534
San Luis,AR,-33.295,-66.3356,48.58,36,5,8.32,1627780534
Rincon,US,32.296,-81.2354,87.85,72,75,5.75,1627780535
Saint-Pierre,RE,-21.3393,55.4781,65.88,74,0,3.44,1627780535
Hurghada,EG,27.2574,33.8129,84.29,46,13,5.26,1627780535
Villazón,BO,-22.0866,-65.5942,40.28,35,23,4.56,1627780536
Biltine,TD,14.5333,20.9167,73.81,78,100,23.02,1627780536
Balkanabat,TM,39.5108,54.3671,87.22,11,100,9.33,1627780536
Sistranda,NO,63.7256,8.834,51.76,75,100,13.27,1627780536
Tagāb,AF,34.855,69.6492,73.83,68,9,0.81,1627780537
Kampene,CD,-3.6,26.6667,68.34,48,39,2.28,1627780537
Naranjal,EC,-2.6667,-79.6167,73.78,86,78,4.63,1627780537
Umeå,SE,63.8284,20.2597,57.9,100,100,0.0,1627780538
Eilat,IL,29.5581,34.9482,86.18,31,5,3.94,1627780538
Bongandanga,CD,1.5,21.05,70.02,95,100,3.13,1627780538
Dourbali,TD,11.8091,15.8632,74.44,89,100,4.45,1627780539
Greytown,ZA,-29.0642,30.5928,48.88,40,11,3.18,1627780539
Malbork,PL,54.0359,19.0266,62.26,72,0,9.6,1627780539
Quepos,CR,9.4236,-84.1652,85.53,86,53,1.41,1627780539
Marawi,PH,7.9986,124.2928,82.65,60,28,2.95,1627780540
Pizarro,CO,4.9533,-77.366,78.64,90,96,6.04,1627780540
Bonfim,BR,3.0833,-59.95,75.06,91,92,4.03,1627780940
Jumla,NP,29.2747,82.1838,65.07,93,100,1.3,1627780940
Riohacha,CO,11.5444,-72.9072,84.04,67,0,17.81,1627780940
Teya,RU,60.3778,92.6267,63.41,52,100,2.86,1627780941
Charleston,US,32.7766,-79.9309,85.01,93,1,5.01,1627780826
Linares,CL,-35.85,-71.6,46.78,79,0,4.09,1627780941
Rosetta,EG,31.4044,30.4164,78.62,74,0,6.26,1627780941
Urazovo,RU,50.0836,38.0395,68.65,62,0,1.52,1627780942
Gayéri,BF,12.6497,0.4931,75.22,85,97,11.18,1627780942
Turukhansk,RU,65.8167,87.9833,52.18,90,100,9.15,1627780942
Les Cayes,HT,18.2,-73.75,78.17,86,83,3.67,1627780942
Bauchi,NG,10.5,10.0,70.83,92,100,4.81,1627780943
Talcahuano,CL,-36.7167,-73.1167,46.08,81,0,6.91,1627780943
Marzuq,YE,14.4,46.4667,76.57,67,39,2.21,1627780943
Nurota,UZ,40.5614,65.6886,69.89,22,67,6.69,1627780944
Monte Alegre de Minas,BR,-18.8706,-48.8808,68.65,44,4,4.45,1627780944
Uruaçu,BR,-14.5247,-49.1408,73.81,41,88,3.58,1627780944
Barkot,IN,30.8167,78.2,71.04,91,6,1.66,1627780944
Roald,NO,62.5833,6.1333,56.16,82,90,17.27,1627780945
Margate,GB,51.3813,1.3862,61.03,91,73,1.99,1627780945
Agirish,RU,61.9247,63.0231,55.54,98,100,7.36,1627780945
Ugoofaaru,MV,5.6667,73.0,82.76,74,28,11.97,1627780874
Dilla,ET,6.41,38.31,61.09,84,100,3.47,1627780946
Ardakān,IR,32.31,54.0175,86.38,20,30,6.44,1627780946
Moose Factory,CA,51.2585,-80.6094,57.2,82,1,3.44,1627780946
Alekseyevka,RU,50.6309,38.6903,69.06,57,0,1.16,1627780947
Mossendjo,CG,-2.9506,12.7261,66.31,87,70,2.93,1627780947
Kandi,BJ,11.1342,2.9386,72.25,97,65,3.18,1627780947
Menzelinsk,RU,55.7271,53.1026,65.44,89,0,8.05,1627780948
Puerto Baquerizo Moreno,EC,-0.9,-89.6,70.72,84,41,12.3,1627780948
Acará,BR,-1.9608,-48.1967,72.1,99,100,3.78,1627780948
Toužim,CZ,50.0605,12.9851,58.75,87,0,3.44,1627780948
Venice,US,27.0998,-82.4543,87.15,79,1,4.61,1627780868
Marsabit,KE,2.3284,37.9899,59.59,80,98,21.94,1627780949
Birjand,IR,32.8663,59.2211,64.87,20,0,6.91,1627780949
Salinas,US,36.6777,-121.6555,83.97,70,75,12.66,1627780430
Sasaram,IN,24.951,84.0149,78.89,87,97,7.78,1627780950
Ikalamavony,MG,-21.15,46.5833,50.36,81,0,6.62,1627780950
Östersund,SE,63.1792,14.6357,52.25,76,90,0.0,1627780950
Natal,BR,-5.795,-35.2094,75.85,88,20,10.36,1627780950
Samarkand,UZ,39.6542,66.9597,72.82,49,54,4.61,1627780951
Kovylkino,RU,54.0388,43.9139,64.13,72,100,5.17,1627780951
Agia Marina,GR,37.75,23.5333,88.56,64,0,7.4,1627780951
Aswān,EG,24.0934,32.907,88.9,19,0,5.75,1627780952
Zamora,EC,-4.0692,-78.9567,65.34,98,97,1.54,1627780952
Gouré,NE,13.9835,10.2704,79.02,56,45,8.68,1627780952
Umluj,SA,25.0213,37.2685,84.99,57,100,5.28,1627780953
Jutaí,BR,-5.1833,-68.9,71.82,56,7,0.98,1627780953
Novaya Malykla,RU,54.2,49.95,64.76,82,6,5.57,1627780953
Pervouralsk,RU,56.9053,59.9436,62.85,97,65,8.08,1627780954
Mabaruma,GY,8.2,-59.7833,74.52,93,5,2.89,1627780954
Skibbereen,IE,51.55,-9.2667,57.0,91,46,5.7,1627780954
Porteirinha,BR,-15.7433,-43.0283,63.3,66,90,9.95,1627780954
Imbituba,BR,-28.24,-48.6703,59.83,87,100,7.47,1627780955
Hosanagara,IN,13.9167,75.0667,69.12,97,99,5.77,1627780756
Sheregesh,RU,52.9209,87.9869,59.74,75,79,2.24,1627780955
São Gabriel da Cachoeira,BR,-0.1303,-67.0892,75.79,72,100,0.29,1627780955
Hukuntsi,BW,-24.0,21.75,47.32,44,0,9.46,1627780956
Havre-St-Pierre,CA,50.2334,-63.5986,57.56,94,90,4.61,1627780956
Salta,AR,-24.7859,-65.4117,53.89,47,0,4.61,1627780956
Khorramshahr,IR,30.4397,48.1664,85.96,58,0,4.61,1627780956
Tevriz,RU,57.509,72.4042,56.01,91,5,3.18,1627780957
Amapá,BR,1.0,-52.0,71.6,99,99,2.24,1627780957
Zanjān,IR,36.6736,48.4787,63.14,80,37,6.2,1627780957
Boralday,KZ,43.3578,76.8594,66.06,45,91,0.0,1627780958
Malm,NO,64.0721,11.2172,53.44,87,76,4.5,1627780934
Hamilton,US,39.1834,-84.5333,71.35,73,90,4.61,1627780958
Aljezur,PT,37.3191,-8.8033,60.71,80,12,13.06,1627780958
Ifakara,TZ,-8.1333,36.6833,68.14,75,98,2.66,1627780959
Tingo María,PE,-9.2895,-76.0088,67.1,92,4,2.24,1627780959
Diamantino,BR,-14.4086,-56.4461,70.63,31,64,2.21,1627780959
Tres Arroyos,AR,-38.3739,-60.2798,40.23,89,0,3.89,1627780959
Båtsfjord,NO,70.6345,29.7185,47.86,95,100,5.28,1627780960
Gaza,PS,31.5,34.4667,76.98,66,0,1.68,1627780960
Manavālakurichi,IN,8.1333,77.3,78.89,84,98,15.95,1627780960
Leshukonskoye,RU,64.8989,45.7622,52.16,98,80,4.45,1627780961
Tallahassee,US,30.4383,-84.2807,85.93,72,75,4.61,1627780961
Tete,MZ,-16.1564,33.5867,63.79,86,5,5.19,1627780961
Khromtau,KZ,50.2503,58.4347,73.36,38,4,5.14,1627780962
Katrineholm,SE,58.9959,16.2072,57.54,98,69,4.94,1627780962
Dondo,MZ,-19.6094,34.7431,61.32,91,0,3.65,1627780962
Taltal,CL,-25.4,-70.4833,60.39,72,5,4.76,1627780962
Ozinki,RU,51.1786,49.6769,71.01,60,100,1.68,1627780963
Quelimane,MZ,-17.8786,36.8883,62.55,94,40,3.44,1627780963
Tumbotino,RU,55.9993,43.0236,58.89,75,64,6.55,1627780963
Concepción del Uruguay,AR,-32.4825,-58.2372,50.86,78,0,6.02,1627780964
Stavropol,RU,45.0428,41.9733,62.89,59,0,4.47,1627780964
Necochea,AR,-38.5473,-58.7368,42.04,81,6,5.03,1627780964
Shubarshi,KZ,48.5872,57.1869,72.9,14,0,2.95,1627780964
Kurāra,IN,25.9833,79.9833,80.29,87,100,8.86,1627780965
Mossamedes,AO,-15.1961,12.1522,68.34,76,0,6.96,1627780965
Kasongo-Lunda,CD,-6.4667,16.8167,72.03,33,76,1.99,1627780965
Camaçari,BR,-12.6975,-38.3242,74.97,81,74,12.97,1627780719
Gravdal,NO,68.1214,13.5031,48.02,78,100,9.78,1627780966
Cërrik,AL,41.0317,19.9758,69.35,38,0,5.01,1627780966
Waddān,LY,29.1614,16.139,85.26,19,0,6.4,1627780966
Marsá Maţrūḩ,EG,31.3525,27.2453,79.0,73,0,13.8,1627780967
Hammerfest,NO,70.6634,23.6821,45.05,87,90,2.3,1627780967
Mitú,CO,1.1983,-70.1733,73.35,80,100,1.9,1627780967
Tignère,CM,7.3667,12.65,63.93,97,100,1.07,1627780968
Aligarh,IN,27.8833,78.0833,82.69,81,40,6.17,1627780968
Sohag,EG,26.557,31.6948,82.69,19,16,4.45,1627780968
Los Llanos de Aridane,ES,28.6585,-17.9182,67.75,88,90,14.97,1627780969
Eyl,SO,7.9803,49.8164,77.22,65,100,16.89,1627780969
Kulevcha,UA,46.0303,29.9361,71.02,74,5,6.06,1627780969
Arroyo de la Encomienda,ES,41.6096,-4.7969,55.44,72,90,10.36,1627780969
Bom Jesus,BR,-9.0744,-44.3586,74.98,63,43,7.16,1627780970
San Pedro de Ycuamandiyú,PY,-24.0917,-57.0764,56.19,58,100,5.99,1627780970
Çan,TR,40.0333,27.0524,79.48,70,0,1.57,1627780970
Muisne,EC,0.6,-80.0333,75.56,84,91,9.53,1627780971
Talnakh,RU,69.4865,88.3972,56.89,72,98,10.33,1627780971
Marabba,SD,12.35,32.1833,72.75,85,100,8.21,1627780971
Capreol,CA,46.706,-80.9225,57.54,96,90,2.3,1627780971
Visnes,NO,59.3556,5.2242,57.58,82,20,20.71,1627780972
Talara,PE,-4.5772,-81.2719,65.44,89,20,17.69,1627780972
Krasnyy Kholm,RU,58.0607,37.1203,54.93,96,1,6.49,1627780972
Zaysan,KZ,47.4667,84.8667,70.74,21,0,7.67,1627780973
Santiago,CL,-33.4569,-70.6483,61.18,39,76,0.0,1627780799
Malindi,KE,-3.2175,40.1191,73.15,87,100,15.77,1627780973
Santa Maria,BR,-29.6842,-53.8069,45.7,100,0,2.3,1627780974
Siirt,TR,37.9326,41.9403,77.54,38,11,5.93,1627780974
Sennar,SD,13.5691,33.5672,72.91,83,76,10.4,1627780974
Tiznit Province,MA,29.5833,-9.5,78.39,42,3,2.28,1627780974
Plettenberg Bay,ZA,-34.0527,23.3716,58.03,45,30,4.16,1627780975
Saint-Joseph,RE,-21.3667,55.6167,64.78,80,21,12.35,1627780975
Bubaque,GW,11.2833,-15.8333,78.39,85,100,19.26,1627780975
Eydhafushi,MV,5.1033,73.0708,82.47,74,67,11.21,1627780874
Pimentel,PE,-6.8367,-79.9342,64.99,84,6,3.0,1627780976
Paraná,AR,-31.732,-60.5238,55.54,50,0,5.84,1627780976
Río Blanco,MX,18.8333,-97.15,66.94,98,100,5.1,1627780976
Srīvardhan,IN,18.0333,73.0167,80.19,84,100,15.28,1627780977
Kalmunai,LK,7.4167,81.8167,78.91,78,100,7.0,1627780977
Zadar,HR,44.1197,15.2422,74.01,53,0,8.05,1627780977
Visby,SE,57.6409,18.296,60.85,100,75,5.75,1627780978
Belyy Yar,RU,53.6039,91.3903,60.69,88,0,2.24,1627780978
Kulhudhuffushi,MV,6.6221,73.07,82.33,76,35,13.24,1627780978
Arrondissement de Saint-Denis,FR,48.9167,2.3333,61.14,82,0,2.3,1627780978
Shīeli,KZ,44.1667,66.75,76.24,28,0,12.84,1627780979
Cervo,ES,43.6702,-7.4101,59.97,85,26,8.57,1627780979
Knysna,ZA,-34.0363,23.0471,44.98,46,74,3.24,1627780979
Kemijärvi,FI,66.7131,27.4306,48.24,95,91,3.91,1627780980
Dudinka,RU,69.4058,86.1778,54.39,80,100,16.51,1627780980
Pontal do Paraná,BR,-25.6533,-48.5128,58.73,90,100,3.49,1627780980
Pinega,RU,64.7001,43.3936,52.95,97,100,2.35,1627780981
Nassau,US,40.7507,-73.5829,73.71,72,1,1.99,1627780705
Zhmerynka,UA,49.037,28.112,66.85,85,8,2.26,1627780981
Kingsland,US,30.8,-81.6898,89.62,74,99,1.99,1627780981
Pryyutivka,UA,48.7209,33.0708,70.68,58,0,5.32,1627780982
Kirillov,RU,59.863,38.3813,53.67,94,17,6.29,1627780982
Makat,KZ,47.6469,53.3463,81.09,17,6,4.07,1627780982
Hambantota,LK,6.1241,81.1185,78.84,82,32,15.59,1627780305
Bentiu,SS,9.2333,29.8333,71.02,96,100,1.54,1627780983
Yarensk,RU,62.1675,49.0916,53.15,98,97,4.79,1627780984
Severnoye,RU,56.3491,78.3619,57.88,93,23,6.85,1627780984
Berbérati,CF,4.2612,15.7922,67.78,98,100,1.81,1627780984
Mulchén,CL,-37.7167,-72.2333,44.62,87,4,4.38,1627780984
Petrov Val,RU,50.1434,45.2096,69.91,66,8,4.52,1627780985
Megion,RU,61.0296,76.1136,53.62,81,68,1.68,1627780985
Cutro,IT,39.0353,16.9819,65.46,37,0,1.48,1627780985
Palivere,EE,58.9664,23.8911,64.62,97,15,6.73,1627780986
Cumbernauld,GB,55.9469,-3.9905,54.91,86,68,3.58,1627780986
Province of Mantua,IT,45.1667,10.7833,75.9,95,100,5.55,1627780986
Payyanur,IN,12.1,75.2,76.59,87,19,5.99,1627780986
Gari,RU,59.4307,62.3497,60.17,97,100,7.02,1627780987
Tiruchchendur,IN,8.4833,78.1167,80.89,69,100,5.55,1627780987
Dolores,AR,-36.3132,-57.6792,44.62,67,0,3.67,1627780987
Newark,US,40.7357,-74.1724,73.98,58,1,0.0,1627780945
Presidencia Roque Sáenz Peña,AR,-26.7852,-60.4388,55.74,56,82,2.1,1627780988
Petra,JO,30.3222,35.4793,72.1,23,0,6.73,1627780988
