City,Country,Lat,Lng,Max Temp,Humidity,Cloudiness,Wind Speed,Date
Pentecoste,BR,-3.7928,-39.2703,79.68,57,10,6.31,1627865354
Saldanha,ZA,-33.0117,17.9442,48.25,87,40,8.16,1627865354
Regen,DE,48.9667,13.1333,57.2,96,100,3.02,1627865355
Paamiut,GL,61.994,-49.6678,45.66,93,100,8.59,1627865355
Ushuaia,AR,-54.8,-68.3,37.17,87,34,8.41,1627865104
Kruisfontein,ZA,-34.0033,24.7314,56.88,81,84,12.62,1627865355
Belyy Yar,RU,53.6039,91.3903,60.69,82,0,4.47,1627865356
Cape Town,ZA,-33.9258,18.4232,57.11,83,0,1.01,1627865086
Hermanus,ZA,-34.4187,19.2345,55.8,86,97,5.35,1627865356
Miepherkeim,TR,38.1419,41.0081,71.89,40,0,6.02,1627865357
Souillac,MU,-20.5167,57.5167,68.38,83,40,11.5,1627865357
Ponta do Sol,PT,32.6667,-17.1,72.23,89,2,4.03,1627865357
Bredasdorp,ZA,-34.5322,20.0403,56.52,88,100,1.14,1627865357
Karachev,RU,53.1229,34.9852,66.09,81,100,6.11,1627865358
Ribeira Grande,PT,38.5167,-28.7,72.82,95,16,13.67,1627865358
Pisco,PE,-13.7,-76.2167,62.65,82,75,12.66,1627865093
Dhidhdhoo,MV,6.8833,73.1,83.16,73,100,14.25,1627865358
East London,ZA,-33.0153,27.9116,62.13,67,77,19.35,1627865359
Riyadh,SA,24.6877,46.7219,89.74,11,6,7.54,1627865300
Curaçá,BR,-8.9903,-39.9094,71.01,58,33,15.1,1627865359
Hanover,DE,52.3705,9.7332,59.94,93,40,1.01,1627865216
Chepo,PA,9.1667,-79.1,83.01,89,100,0.94,1627865360
Senno,RU,59.5336,33.9167,51.26,94,100,4.94,1627865360
Yarmouth,US,41.7057,-70.2286,70.27,75,75,1.99,1627865360
Nyamuswa,TZ,-1.9,34.0167,68.86,55,8,4.09,1627865360
Narsaq,GL,60.9167,-46.05,61.02,74,100,6.76,1627865361
Jamestown,US,42.097,-79.2353,61.3,87,90,4.0,1627865358
Andenes,NO,69.3143,16.1194,46.38,87,90,13.8,1627865361
Kavaratti,IN,10.5669,72.642,82.06,75,93,16.4,1627865361
Mehamn,NO,71.0357,27.8492,45.27,91,100,17.81,1627865362
Tasiilaq,GL,65.6145,-37.6368,48.36,77,100,3.83,1627865362
Mahébourg,MU,-20.4081,57.7,68.29,83,40,11.5,1627865362
Arrondissement de Rennes,FR,48.1667,-1.6667,59.58,100,23,3.44,1627865363
Ilulissat,GL,69.2167,-51.1,60.82,33,0,26.46,1627865363
Salisbury,GB,51.0693,-1.7957,60.48,88,75,4.61,1627865363
Grand Gaube,MU,-20.0064,57.6608,68.4,85,17,3.0,1627865364
São Félix do Xingu,BR,-6.6447,-51.995,78.48,46,57,2.46,1627865364
George Town,MY,5.4112,100.3354,78.89,91,20,1.99,1627865066
Mar del Plata,AR,-38.0023,-57.5575,45.09,1,0,1.99,1627865364
Chicama,PE,-7.8447,-79.1469,63.14,80,0,6.08,1627865365
Nuuk,GL,64.1835,-51.7216,59.61,67,90,4.61,1627865365
São João da Barra,BR,-21.6403,-41.0511,67.12,65,88,8.46,1627865365
Arraial do Cabo,BR,-22.9661,-42.0278,66.36,74,7,13.73,1627865366
Marzuq,YE,14.4,46.4667,80.06,60,44,4.36,1627865366
Hong Kong,HK,22.2855,114.1577,86.97,88,100,1.01,1627864856
Hofn,IS,64.2539,-15.2082,53.51,92,98,2.68,1627865366
Oyotún,PE,-6.8519,-79.3036,71.04,70,1,2.17,1627865366
Lagoa,PT,39.05,-27.9833,71.83,95,100,14.88,1627865367
Tibati,CM,6.4667,12.6333,65.32,98,100,2.33,1627865367
Punta Arenas,CL,-53.15,-70.9167,41.11,75,40,23.02,1627865315
Pervouralsk,RU,56.9053,59.9436,53.85,87,100,5.68,1627865368
Bambous Virieux,MU,-20.3428,57.7575,68.25,83,40,11.5,1627865368
Clyde River,CA,70.4692,-68.5914,41.23,87,75,19.57,1627865368
Hattiesburg,US,31.3271,-89.2903,84.45,83,1,5.75,1627865368
Codrington,AU,-38.2667,141.9667,52.47,72,39,20.4,1627865369
Dallas,US,32.7668,-96.7836,81.57,91,90,0.0,1627865099
Cidreira,BR,-30.1811,-50.2056,55.8,94,4,4.45,1627865369
Klaksvík,FO,62.2266,-6.589,47.32,79,96,4.92,1627865369
Port Alfred,ZA,-33.5906,26.891,60.84,82,75,21.85,1627865370
Kamenka,RU,51.3223,42.7678,69.73,68,3,4.92,1627865370
Menzelinsk,RU,55.7271,53.1026,61.84,70,8,5.73,1627865370
Longyearbyen,SJ,78.2186,15.6401,44.44,70,75,13.8,1627865371
Bathsheba,BB,13.2167,-59.5167,81.21,83,40,11.5,1627865371
Dingle,PH,10.9995,122.6711,85.78,70,98,14.36,1627865371
Platonovka,RU,52.7106,41.952,68.92,54,3,6.24,1627865372
Macusani,PE,-14.0833,-70.4333,33.73,85,80,7.0,1627865372
Uruguaiana,BR,-29.7547,-57.0883,51.73,76,0,8.05,1627865372
Husavik,IS,66.0449,-17.3389,53.51,74,100,1.9,1627865372
Marmaris,TR,36.855,28.2742,89.55,39,0,8.86,1627865373
Thinadhoo,MV,0.5333,72.9333,81.52,71,78,3.2,1627865373
Kostino,RU,58.9097,53.2691,57.0,90,100,4.29,1627865373
Busselton,AU,-33.65,115.3333,54.21,68,100,7.72,1627865374
Hithadhoo,MV,-0.6,73.0833,81.32,72,85,6.42,1627865374
kimparana,ML,12.8347,-4.9244,76.26,79,8,8.59,1627865374
Anakapalle,IN,17.6833,83.0167,82.35,69,79,3.78,1627865374
Comodoro Rivadavia,AR,-45.8667,-67.5,62.46,22,0,18.41,1627865079
Lucapa,AO,-8.4192,20.7447,63.7,30,98,3.11,1627865375
Upernavik,GL,72.7868,-56.1549,42.69,79,5,9.69,1627865375
Turukhansk,RU,65.8167,87.9833,64.35,64,99,6.24,1627865376
Uri,IN,34.0833,74.0333,68.81,91,36,3.15,1627865376
Pop,UZ,40.8736,71.1089,77.49,43,95,3.94,1627865376
Atar,MR,20.5169,-13.0499,88.25,44,99,11.77,1627865376
Usinsk,RU,65.9939,57.5281,51.46,91,100,6.15,1627865377
Ciocăneşti,RO,44.6,25.85,80.24,48,0,4.25,1627865377
Gurupá,BR,-1.405,-51.64,73.85,83,31,3.31,1627865377
Nísia Floresta,BR,-6.0911,-35.2086,76.01,78,3,14.45,1627865378
Arrondissement de Saint-Gaudens,FR,43.0833,0.6667,59.13,92,37,3.2,1627865378
Oranjemund,NA,-28.55,16.4333,55.56,76,0,7.34,1627865378
Torbay,CA,47.6666,-52.7314,61.57,86,20,12.66,1627865378
Qaanaaq,GL,77.484,-69.3632,42.01,84,74,2.15,1627865379
Quatre Cocos,MU,-20.2078,57.7625,68.11,69,14,12.53,1627865379
Mahon,ES,39.8885,4.2658,70.36,78,0,5.75,1627865379
Dalen,NL,52.6992,6.7556,55.94,94,5,7.27,1627865380
Moyobamba,PE,-6.05,-76.9667,62.46,98,11,1.74,1627865380
Port-Gentil,GA,-0.7193,8.7815,76.51,78,100,12.39,1627865380
Meulaboh,ID,4.1363,96.1285,76.33,85,84,2.84,1627865381
Chui,UY,-33.6971,-53.4616,50.59,93,74,6.2,1627865381
Oskemen,KZ,49.9565,82.6119,57.16,88,5,0.0,1627865381
Leshukonskoye,RU,64.8989,45.7622,54.25,97,100,3.96,1627865382
Disna,BY,55.568,28.1971,63.1,77,100,7.96,1627865382
Birjand,IR,32.8663,59.2211,68.47,18,0,11.5,1627865382
Emba,KZ,48.8264,58.1442,77.99,41,6,7.83,1627865382
Assiut,EG,27.181,31.1837,86.18,18,4,5.77,1627865383
Adrar,MR,20.5022,-10.0711,91.18,31,16,5.21,1627865383
Arrondissement de Saint-Denis,FR,48.9167,2.3333,63.37,76,0,4.61,1627865383
Pangnirtung,CA,66.1451,-65.7125,52.39,77,100,1.61,1627865384
Touros,BR,-5.1989,-35.4608,76.1,73,9,17.45,1627865384
Gao,ML,16.6362,1.637,88.29,46,18,13.65,1627865087
Varberg,SE,57.1056,12.2508,59.25,91,48,19.98,1627865384
Esna,EG,25.2934,32.554,86.02,17,0,7.25,1627865385
Biaora,IN,23.8667,76.9167,72.77,97,100,16.73,1627865385
Dikson,RU,73.5069,80.5464,42.12,99,100,10.09,1627865385
Bandar-e Lengeh,IR,26.5579,54.8807,91.51,75,10,0.0,1627865386
Hargeisa,SO,9.56,44.065,67.73,61,14,28.63,1627865386
Lüderitz,NA,-26.6481,15.1594,63.1,38,0,7.34,1627865386
Garissa,KE,-0.4536,39.6401,71.26,79,87,15.64,1627865386
Sur,OM,22.5667,59.5289,89.82,56,100,4.61,1627865387
Saint George,US,37.1041,-113.5841,97.39,28,75,4.0,1627865387
Campohermoso,ES,36.9357,-2.1337,74.12,81,100,3.62,1627865387
Vangaindrano,MG,-23.35,47.6,64.17,90,75,4.65,1627865388
Kamari,GR,36.8,25.8167,81.82,73,0,20.98,1627865388
Mossamedes,AO,-15.1961,12.1522,67.15,87,15,1.83,1627865388
Aksarka,RU,66.5606,67.7975,56.95,95,100,6.17,1627865389
Sinop Province,TR,41.7711,34.8709,64.11,70,0,3.09,1627865166
Mogwase,ZA,-25.185,27.2665,51.04,26,0,4.76,1627865389
Tokonou,GN,9.65,-9.7833,68.22,98,82,6.67,1627865389
Bam,IR,29.106,58.357,87.06,13,88,13.24,1627865390
Kristiansund,NO,63.1115,7.732,50.65,76,90,4.61,1627865390
Gamba,GA,-2.65,10.0,72.59,86,79,5.48,1627865390
Tessalit,ML,20.1986,1.0114,85.37,46,100,14.97,1627865391
Sumbe,AO,-11.2061,13.8437,70.3,92,29,3.29,1627865391
Puerto Quijarro,BO,-17.7833,-57.7667,70.75,32,2,7.96,1627865391
Bonavista,CA,48.6499,-53.1147,62.11,80,0,19.39,1627865391
Banamba,ML,13.55,-7.45,75.56,80,7,9.73,1627865392
Cap Malheureux,MU,-19.9842,57.6142,68.49,85,16,3.0,1627865392
Inhambane,MZ,-23.865,35.3833,61.61,84,0,5.14,1627865392
Miandrivazo,MG,-19.5167,45.4667,67.96,55,9,3.71,1627865393
Ciudad Bolivar,VE,8.1222,-63.5497,77.23,86,100,5.23,1627865393
Vila Velha,BR,-20.3297,-40.2925,66.15,77,75,4.61,1627865393
Leland,US,34.2563,-78.0447,77.07,88,1,3.44,1627865393
Skibbereen,IE,51.55,-9.2667,55.2,87,100,6.55,1627865394
Itarema,BR,-2.9248,-39.9167,75.92,75,11,8.79,1627865394
Tambo,PE,-14.8,-73.9167,38.89,58,70,5.66,1627865394
Rockland,US,41.1668,-74.0496,71.83,94,62,1.01,1627865395
Rawson,AR,-43.3002,-65.1023,55.96,39,33,7.94,1627865395
Los Llanos de Aridane,ES,28.6585,-17.9182,67.75,72,90,16.11,1627865395
Margate,GB,51.3813,1.3862,59.7,84,87,9.86,1627865395
Mathathane,BW,-22.2687,28.7495,56.95,34,0,9.06,1627865396
Maceió,BR,-9.6658,-35.7353,71.04,94,90,8.05,1627865325
Geraldton,AU,-28.7667,114.6,49.12,87,40,11.5,1627865396
Richards Bay,ZA,-28.783,32.0377,62.55,43,82,5.21,1627865396
Faya,SA,18.3851,42.4509,66.31,62,81,5.59,1627865397
Abū Zabad,SD,12.35,29.25,73.99,75,100,10.0,1627865397
Carnarvon,AU,-24.8667,113.6333,50.07,56,0,10.36,1627865397
Immokalee,US,26.4187,-81.4173,87.91,73,1,0.0,1627865376
Neuquén,AR,-38.9516,-68.0591,44.49,81,0,0.0,1627865398
Qaqortoq,GL,60.7167,-46.0333,61.3,79,100,2.08,1627865398
Vallenar,CL,-28.5708,-70.7581,69.55,26,0,1.28,1627865398
Umm Kaddadah,SD,13.6017,26.6876,81.23,63,23,16.42,1627865399
Deer Lake,CA,49.1667,-57.4316,62.46,72,20,13.8,1627865399
Boueni,YT,-12.9025,45.0761,73.38,69,35,18.88,1627865399
Reconquista,AR,-29.15,-59.65,51.57,63,0,5.46,1627865400
Kibre Mengist,ET,5.8833,38.9833,58.77,81,100,4.16,1627865400
Cabedelo,BR,-6.9811,-34.8339,74.07,84,27,16.37,1627865400
Yafran,LY,32.0633,12.5286,84.88,16,0,11.14,1627865401
Bandarbeyla,SO,9.4942,50.8122,82.09,62,11,27.92,1627865401
Aden,YE,12.7794,45.0367,80.85,87,19,11.48,1627865161
Padang,ID,-0.9492,100.3543,75.25,88,100,3.33,1627865403
Mossendjo,CG,-2.9506,12.7261,67.64,88,100,2.73,1627865403
Bereket,TM,39.2446,55.5154,80.38,16,2,3.31,1627865403
Cibitoke Province,BI,-2.8833,29.25,61.63,63,54,2.71,1627865404
Sychëvka,RU,55.8252,34.2736,61.09,75,100,3.67,1627865404
Oussouye,SN,12.485,-16.5469,78.89,88,48,9.82,1627865404
Belmonte,BR,-15.8631,-38.8828,66.7,68,100,15.1,1627865404
Ubari,LY,26.5921,12.7805,85.87,12,0,6.24,1627865405
La Asuncion,VE,11.0333,-63.8628,83.93,84,7,9.22,1627865405
Vestmannaeyjar,IS,63.4427,-20.2734,53.8,90,92,4.83,1627865405
Kontagora,NG,10.3999,5.4695,70.25,97,64,3.13,1627865406
Nanortalik,GL,60.1432,-45.2371,47.25,81,100,8.55,1627865406
Río Gallegos,AR,-51.6226,-69.2181,44.65,57,0,14.97,1627865392
San Andrés,CO,12.5847,-81.7006,82.42,89,75,11.5,1627865349
Ancud,CL,-41.8697,-73.8203,47.73,86,100,3.36,1627865406
Havre-St-Pierre,CA,50.2334,-63.5986,57.56,88,40,11.5,1627865407
Bosaso,SO,11.2842,49.1816,88.48,42,26,22.84,1627865407
Tarnów,PL,50.0138,20.987,63.97,96,100,15.41,1627865407
Freetown,SL,8.484,-13.2299,75.06,91,100,7.29,1627865408
Abnūb,EG,27.2696,31.1511,86.22,18,2,6.44,1627865408
Galle,LK,6.0367,80.217,78.8,85,34,10.16,1627865408
Tonj,SS,7.2737,28.6822,68.65,97,100,9.51,1627865408
Presidencia Roque Sáenz Peña,AR,-26.7852,-60.4388,54.28,49,0,4.72,1627865409
Larsnes,NO,62.2028,5.5773,52.68,77,39,8.05,1627865409
Yar-Sale,RU,66.8333,70.8333,54.91,98,100,15.23,1627865409
Morondava,MG,-20.2833,44.2833,67.91,73,55,3.85,1627865410
Syas'stroy,RU,60.1367,32.5691,56.73,94,30,8.95,1627865410
Vila Franca do Campo,PT,37.7167,-25.4333,73.81,93,63,9.69,1627865410
Itupiranga,BR,-5.1347,-49.3267,80.4,53,94,1.5,1627865411
Castro,BR,-24.7911,-50.0119,45.86,91,19,2.95,1627865411
Hamilton,US,39.1834,-84.5333,76.05,66,75,9.22,1627865335
Tabuk,PH,17.4189,121.4443,85.48,66,99,2.84,1627865411
Oktyabr'skoye,RU,43.0645,44.7417,64.54,88,9,4.47,1627865412
Glyadyanskoye,RU,54.9075,65.0883,62.29,79,6,6.82,1627865412
Tombouctou,ML,20.0,-3.0,92.82,33,6,7.78,1627865412
Saint-Philippe,RE,-21.3585,55.7679,67.55,72,43,7.29,1627865412
Kindu,CD,-2.95,25.95,75.67,43,100,2.64,1627865413
Araxá,BR,-19.5933,-46.9406,64.36,52,0,9.22,1627865413
Sørland,NO,67.667,12.6934,49.3,75,100,11.68,1627865413
Ibicuí,BR,-14.8417,-39.9867,58.57,94,100,4.45,1627865414
Caraz,PE,-9.0486,-77.81,63.77,64,53,6.73,1627865414
Bengkulu,ID,-3.8004,102.2655,75.9,89,97,3.71,1627865414
Begūn,IN,24.9833,75.0,72.43,92,100,10.2,1627865414
Distrikt Brokopondo,SR,4.75,-55.1667,77.67,83,99,7.34,1627865415
Muriti,TZ,-1.9833,32.9167,66.31,56,12,14.12,1627865415
Zelenogorskiy,RU,55.0333,87.0,59.52,70,96,3.44,1627865415
Aripuanã,BR,-9.1667,-60.6333,74.37,45,74,2.66,1627865416
Goba,ET,7.0167,39.9833,50.94,94,99,4.05,1627865416
Kamina,CD,-8.7386,24.9906,60.3,46,88,3.33,1627865416
Salalah,OM,17.0151,54.0924,74.5,95,100,4.36,1627865417
Nantucket,US,41.2835,-70.0995,69.91,75,90,8.05,1627865417
Hare Bay,CA,48.8499,-54.0148,65.55,72,2,12.26,1627865417
Road Town,VG,18.4167,-64.6167,84.24,79,20,8.05,1627865251
Tonk,IN,26.1667,75.7833,76.48,92,100,6.55,1627865418
Port Elizabeth,ZA,-33.918,25.5701,61.09,72,20,25.32,1627865274
Pimenta Bueno,BR,-11.6725,-61.1936,72.79,37,0,4.36,1627865368
São Filipe,CV,14.8961,-24.4956,75.63,77,19,0.76,1627865418
Samfya,ZM,-11.3649,29.5565,56.46,80,2,6.62,1627865419
Cap-aux-Meules,CA,47.3821,-61.8597,64.45,68,20,10.36,1627865419
Saint-Leu,RE,-21.15,55.2833,67.03,68,17,3.33,1627865419
Vardø,NO,70.3705,31.1107,49.3,96,100,8.93,1627865419
Grootfontein,NA,-19.5667,18.1167,38.77,70,0,1.14,1627865420
Camopi,GF,3.1655,-52.3158,70.7,99,45,1.88,1627865420
Oddur,SO,4.1213,43.8894,68.43,83,66,16.8,1627865420
Calamar,CO,10.2511,-74.9146,85.95,80,18,6.87,1627865421
Novy Urengoy,RU,66.0833,76.6333,59.88,61,100,12.53,1627865421
North Myrtle Beach,US,33.816,-78.68,85.03,90,75,4.61,1627865317
Orán,AR,-23.1322,-64.326,56.34,41,41,3.15,1627865421
Ushtobe,KZ,45.2514,77.9838,73.69,18,0,8.01,1627865422
Altay,CN,47.8667,88.1167,68.45,39,0,2.04,1627865422
Salinópolis,BR,-0.6136,-47.3561,77.94,80,91,7.43,1627865204
Manaure,CO,11.7751,-72.4445,83.14,71,18,17.65,1627865422
Buraidah,SA,26.326,43.975,88.25,10,5,1.1,1627865423
Gornopravdinsk,RU,60.05,69.9,60.66,99,98,3.04,1627865423
Coyhaique,CL,-45.5752,-72.0662,51.75,66,75,8.05,1627865423
Tubualá,PA,9.5167,-79.0333,83.34,81,100,2.35,1627865424
Rafaela,AR,-31.2503,-61.4867,53.06,46,0,5.12,1627865424
Udayagiri,IN,20.1333,84.3833,72.81,80,100,2.75,1627865424
Puerto Carreño,CO,6.189,-67.4859,74.61,86,51,4.52,1627865424
Dakar,SN,14.6937,-17.4441,82.53,78,75,4.61,1627865425
Vilhena,BR,-12.7406,-60.1458,67.1,42,0,2.93,1627865385
Den Helder,NL,52.9599,4.7593,60.78,78,75,10.36,1627865425
Iqaluit,CA,63.7506,-68.5145,47.93,93,90,3.44,1627865425
Krasne,UA,49.9145,24.6134,61.95,84,16,9.71,1627865426
Aketi,CD,2.7388,23.7833,71.31,86,100,1.16,1627865426
Porto Walter,BR,-8.2686,-72.7439,70.2,57,7,0.81,1627865426
Talnakh,RU,69.4865,88.3972,60.35,77,100,5.08,1627865427
Alto Araguaia,BR,-17.3147,-53.2153,63.37,37,0,5.82,1627865427
Alta Floresta,BR,-9.8756,-56.0861,75.67,42,9,4.36,1627865427
Arak,IR,34.0917,49.6892,71.2,31,89,3.42,1627865428
Naliya,IN,23.2667,68.8333,81.3,83,100,18.45,1627865428
Caravelas,BR,-17.7125,-39.2481,68.02,67,48,7.78,1627865428
Ibrā’,OM,22.6906,58.5334,85.32,53,100,2.48,1627865429
Cavalcante,BR,-13.7975,-47.4583,67.23,53,4,5.21,1627865429
Crixás,BR,-14.5489,-49.9692,75.56,34,7,4.45,1627865429
Kalmunai,LK,7.4167,81.8167,79.79,76,100,5.91,1627865430
Derzhavīnsk,KZ,51.1,66.3167,73.89,54,3,7.38,1627865430
Karachi,PK,24.9056,67.0822,80.42,78,75,14.97,1627865203
Araouane,ML,18.9048,-3.5265,93.27,36,0,11.14,1627865430
Albany,US,42.6001,-73.9662,66.07,93,100,1.3,1627865269
San Cristobal,VE,7.7669,-72.225,75.38,98,100,5.86,1627865431
Lamu,KE,-2.2717,40.902,75.42,81,67,16.62,1627865431
Umluj,SA,25.0213,37.2685,86.85,46,58,4.07,1627865431
Bubaque,GW,11.2833,-15.8333,79.9,81,94,20.92,1627865432
Cayenne,GF,4.9333,-52.3333,82.09,79,0,4.61,1627865432
Liverpool,GB,53.4106,-2.9779,58.37,78,75,5.75,1627865432
Viedma,AR,-40.8135,-62.9967,51.21,50,0,16.75,1627865432
Bol,TD,13.4586,14.7147,78.87,84,100,17.58,1627865433
Phalodi,IN,27.1333,72.3667,82.08,75,100,17.49,1627865433
Eirunepé,BR,-6.6603,-69.8736,71.17,54,6,2.84,1627865433
Bobrov,RU,51.0961,40.0333,71.38,59,32,5.57,1627865434
Kokkola,FI,63.8385,23.1307,61.03,86,0,2.3,1627865434
Kermanshah,IR,34.3142,47.065,70.7,35,0,0.0,1627865434
Arrondissement de Nevers,FR,46.9167,3.3333,55.99,91,26,2.75,1627865434
Westport,US,41.1415,-73.3579,73.74,62,90,8.99,1627865141
Yining,CN,29.0361,114.5636,88.97,66,0,2.13,1627865435
Bilma,NE,18.6853,12.9164,92.1,11,19,5.01,1627865435
Barentu,ER,15.1139,37.5928,69.22,88,76,4.32,1627865435
Massa Marittima,IT,43.049,10.8928,72.34,71,11,3.27,1627865436
Sept-Îles,CA,50.2001,-66.3821,62.26,82,75,1.01,1627865436
Ouésso,CG,1.6136,16.0517,70.25,95,100,1.25,1627865436
Faro,PT,37.0194,-7.9322,69.58,83,0,14.97,1627865230
Shache,CN,38.4167,77.2406,68.59,58,100,14.16,1627865437
Kapoeta,SS,4.7717,33.5903,76.53,56,96,0.49,1627865437
Muros,ES,42.7762,-9.0603,64.17,91,93,7.45,1627865437
Malakal,SS,9.5334,31.6605,71.2,95,99,2.98,1627865438
Sabzawār,IR,36.2126,57.6819,75.52,16,0,14.88,1627865438
Aparecida do Taboado,BR,-20.0867,-51.0936,65.08,47,28,7.25,1627865438
Aswān,EG,24.0934,32.907,90.7,13,0,3.44,1627865438
Ambanja,MG,-13.6833,48.45,67.21,81,0,3.42,1627865439
Cefalù,IT,38.0386,14.0229,86.76,38,28,3.0,1627865439
Manakara,MG,-22.1333,48.0167,61.63,93,4,4.56,1627865439
Laguna,US,38.421,-121.4238,103.21,27,1,7.0,1627865440
India,IN,20.0,77.0,72.46,88,100,12.5,1627865440
Kopervik,NO,59.2835,5.3067,53.91,76,19,28.77,1627865163
Dannenberg,DE,53.0967,11.09,59.14,95,59,7.4,1627865440
Lokoja,NG,7.8024,6.743,72.25,97,100,0.63,1627865441
Santa Cruz de la Sierra,BO,-17.8,-63.1667,67.46,32,20,12.66,1627865441
Departamento de Maldonado,UY,-34.6667,-54.9167,45.79,93,0,1.25,1627865441
Taoudenni,ML,22.6783,-3.9836,96.1,26,54,13.89,1627865441
Aranos,NA,-24.1333,19.1167,50.34,36,0,9.24,1627865442
Kayerkan,RU,69.3497,87.7602,55.94,83,100,4.25,1627865442
Bitkine,TD,11.9801,18.2138,74.79,81,100,4.5,1627865442
Nouadhibou,MR,20.931,-17.0347,73.38,78,0,12.66,1627865443
Kurchum,KZ,48.5722,83.6542,70.29,44,0,1.77,1627865443
Acarí,PE,-15.4311,-74.6158,67.57,66,49,4.05,1627865443
Trelew,AR,-43.249,-65.3051,56.86,32,84,8.05,1627865443
Ponta Delgada,PT,37.7333,-25.6667,74.12,88,75,11.5,1627865444
Strezhevoy,RU,60.7333,77.5889,57.18,77,100,7.05,1627865444
Scarborough,GB,54.2797,-0.4044,53.53,87,45,1.01,1627865444
Luleå,SE,65.5842,22.1547,48.27,93,5,6.91,1627865445
Veseloyarsk,RU,51.2836,81.1056,71.62,40,99,9.04,1627865445
Imbituba,BR,-28.24,-48.6703,60.69,92,18,9.37,1627865282
Caucayá,CO,-0.1934,-74.7819,69.19,87,100,2.53,1627865445
Vieux-Habitants,GP,16.0589,-61.7659,80.17,77,0,9.19,1627865446
Urubichá,BO,-15.3833,-62.95,69.58,26,2,6.11,1627865446
Saktī,IN,22.0333,82.9667,76.68,84,89,3.42,1627865446
Arrondissement de Morlaix,FR,48.5833,-4.0,60.85,94,75,3.44,1627865446
Koutsouras,GR,35.0339,25.9469,84.85,47,0,16.33,1627865447
Kondinskoye,RU,59.6481,67.41,57.61,94,3,9.15,1627865447
Gambēla,ET,8.25,34.5833,69.26,97,100,2.15,1627865447
La Seyne-sur-Mer,FR,43.0982,5.8847,71.62,52,51,5.01,1627865448
Pompéia,BR,-22.1086,-50.1717,66.69,59,70,7.18,1627865448
Hualmay,PE,-11.0964,-77.6139,63.77,83,17,10.78,1627865448
Isil'kul',RU,54.9109,71.2728,65.08,92,0,10.31,1627865448
Nchelenge,ZM,-9.3451,28.734,62.01,63,7,6.11,1627865449
Peniche,PT,39.3558,-9.3811,70.72,94,65,5.99,1627865360
Santa Lucía,ES,27.9117,-15.5407,63.77,68,75,24.16,1627865449
Tazovsky,RU,67.4667,78.7,54.63,74,100,9.26,1627865190
Dabat,ET,12.9842,37.765,50.14,92,16,0.83,1627865449
Safi,MA,32.2994,-9.2372,66.24,84,4,12.44,1627865450
Beloha,MG,-25.1667,45.05,62.96,62,0,7.47,1627865450
Pangody,RU,65.85,74.4859,61.52,59,100,12.5,1627865450
Antri,IN,26.0567,78.2144,76.89,95,100,12.48,1627865451
San Miguel de Tucumán,AR,-26.8241,-65.2226,57.2,41,0,8.05,1627865451
Yambio,SS,4.5721,28.3955,66.56,99,100,2.48,1627865451
Fourmies,FR,50.0153,4.0478,58.21,95,18,4.03,1627865451
Nāwa,IN,27.0167,75.0,76.78,92,100,15.84,1627865452
Carutapera,BR,-1.195,-46.02,73.09,89,46,1.23,1627865452
Mayumba,GA,-3.432,10.6554,73.18,86,84,6.26,1627865452
Kudahuvadhoo,MV,2.6708,72.8944,81.75,74,78,7.34,1627865453
Palafrugell,ES,41.9174,3.1631,66.34,100,92,2.1,1627865453
Koulamoutou,GA,-1.1303,12.4736,72.21,91,100,3.15,1627865453
Hermon,US,44.8101,-68.9134,64.81,74,94,4.81,1627865251
Khatīma,IN,28.9167,79.9667,80.82,85,86,2.28,1627865454
Qasigiannguit,GL,68.8193,-51.1922,50.47,58,0,9.15,1627865454
Ālampur,IN,15.8833,78.15,77.14,71,82,14.41,1627865454
Virginia Beach,US,36.8529,-75.978,80.65,86,75,3.44,1627865310
Krasnosel'kup,RU,65.7,82.4667,60.24,80,92,6.44,1627865455
Port-Cartier,CA,50.0334,-66.8654,61.93,75,100,5.39,1627865455
Talcahuano,CL,-36.7167,-73.1167,53.28,76,0,8.05,1627865455
Kabalo,CD,-6.05,26.9167,72.25,40,2,3.71,1627865456
Crateús,BR,-5.1783,-40.6775,72.48,58,100,5.55,1627865456
Havelock,US,34.8791,-76.9013,75.94,96,27,3.0,1627865447
Tabou,CI,4.423,-7.3528,76.23,81,96,6.29,1627865456
Navahrudak,BY,53.6,25.8333,61.11,96,98,3.02,1627865457
Florida,US,28.7505,-82.5001,85.98,50,95,8.28,1627865311
Antofagasta,CL,-23.65,-70.4,58.28,77,25,2.57,1627865454
Gaspar,BR,-26.9314,-48.9589,58.71,45,100,0.11,1627865457
Saint-Augustin,CA,51.226,-58.6502,57.81,83,100,10.83,1627865457
Baixa Grande,BR,-11.9597,-40.1681,61.59,89,17,4.79,1627865458
Alberton,CA,46.8168,-64.0654,66.11,68,98,12.17,1627865458
Ambilobe,MG,-13.2,49.05,68.92,75,48,2.51,1627865458
La Plata,AR,-34.9215,-57.9545,48.99,97,3,4.88,1627865404
Sidhi,IN,24.4167,81.8833,75.49,88,100,10.31,1627865459
Brigantine,US,39.4101,-74.3646,73.02,82,89,3.71,1627865459
Diamantino,BR,-14.4086,-56.4461,73.71,32,0,4.99,1627865459
Lusambo,CD,-4.9667,23.45,67.42,40,13,1.99,1627865460
Belém,BR,-1.4558,-48.5044,80.64,83,0,3.44,1627865206
Marrakesh,MA,31.6315,-8.0083,69.87,60,56,4.61,1627865460
Cardoso,BR,-20.0819,-49.9142,67.42,44,14,5.77,1627865460
Amapá,BR,1.0,-52.0,71.29,98,71,2.91,1627865461
Lebu,CL,-37.6167,-73.65,49.82,80,5,19.19,1627865461
Kangaatsiaq,GL,68.3065,-53.4641,43.92,87,0,5.7,1627865461
Bärnbach,AT,47.0333,15.85,60.93,95,100,2.55,1627865461
Mānvi,IN,15.9833,77.05,74.05,77,100,13.6,1627865462
Kousséri,CM,12.0769,15.0306,75.16,94,100,11.5,1627865462
Goiás,BR,-15.5807,-49.6362,70.61,41,3,4.16,1627865462
Porosozero,RU,62.7191,32.727,52.66,98,17,5.06,1627865463
Manjacaze,MZ,-24.7117,33.8828,57.11,65,0,5.97,1627865463
Kibaya,TZ,-5.3,36.5667,50.9,97,7,3.18,1627865463
Oriximiná,BR,-1.7656,-55.8661,76.37,78,93,2.95,1627865464
Uva,RU,56.9908,52.1852,57.47,88,93,4.45,1627865464
Chardara,KZ,41.2547,67.9692,72.3,38,0,4.14,1627865464
Awjilah,LY,29.1081,21.2869,82.29,38,0,7.76,1627865464
Santa Cruz de La Palma,ES,28.6835,-17.7642,72.14,78,90,16.11,1627865465
Yendi,GH,9.4427,-0.0099,76.19,79,100,4.52,1627865465
Hambantota,LK,6.1241,81.1185,77.34,100,20,5.75,1627865465
Artvin Province,TR,41.1667,41.8333,65.48,91,55,1.9,1627865466
Ulcinj,ME,41.9294,19.2244,79.02,55,2,3.58,1627865466
Raipur,IN,21.2333,81.6333,77.14,94,90,9.22,1627865466
Navrongo,GH,10.8956,-1.0921,76.59,77,35,4.79,1627865467
Morón,AR,-34.6534,-58.6198,50.02,86,0,3.42,1627865353
La Tuque,CA,47.4334,-72.7824,66.45,59,100,6.91,1627865278
Kidal,ML,18.4411,1.4078,81.07,61,100,7.16,1627865467
Bījār,IR,35.8668,47.6051,62.19,59,2,5.64,1627865467
Burgeo,CA,47.6167,-57.6152,57.29,94,21,7.31,1627865468
Eyl,SO,7.9803,49.8164,79.63,69,0,30.42,1627865468
Hagersville,CA,42.9668,-80.0497,64.56,92,36,10.36,1627865189
Borba,BR,-4.3878,-59.5939,80.06,47,95,2.48,1627865468
Thompson,CA,55.7435,-97.8558,84.36,32,20,12.66,1627865469
Cockburn Town,TC,21.4612,-71.1419,82.15,81,99,20.51,1627865469
Pucallpa,PE,-8.3791,-74.5539,78.84,69,75,3.44,1627865469
Rocha,UY,-34.4833,-54.3333,44.65,95,0,4.16,1627865367
Saint Simons,US,31.1352,-81.3901,77.27,94,40,13.8,1627865470
Caconda,AO,-13.7333,15.0667,54.93,40,8,0.47,1627865470
Jalu,LY,29.0331,21.5482,83.44,36,0,9.06,1627865470
Farafangana,MG,-22.8167,47.8333,63.1,92,21,5.23,1627865471
Ajdabiya,LY,30.7554,20.2263,81.84,41,0,8.1,1627865471
Sennar,SD,13.5691,33.5672,75.22,81,86,8.7,1627865471
Murmansk Oblast,RU,68.0,34.0,48.61,96,80,4.88,1627865471
The Valley,AI,18.217,-63.0578,82.81,75,0,14.09,1627865472
Inongo,CD,-1.95,18.2667,68.47,74,46,4.94,1627865472
Knysna,ZA,-34.0363,23.0471,57.58,85,100,5.64,1627865346
Alekseyevka,RU,50.6309,38.6903,71.76,52,100,2.3,1627865472
Nouakchott,MR,18.0858,-15.9785,76.93,84,58,9.66,1627865473
Kologriv,RU,58.8275,44.3178,58.21,99,100,5.1,1627865473
Porto Santo,PT,33.072,-16.3415,71.51,78,40,14.97,1627865473
Mookane,BW,-23.688,26.6595,53.31,32,0,5.48,1627865474
Bāfq,IR,31.6128,55.4107,82.72,15,79,11.21,1627865474
Dunmore Town,BS,25.5,-76.65,84.29,75,9,11.56,1627865474
Rosetta,EG,31.4044,30.4164,78.62,80,0,5.17,1627865475
Bud,US,39.447,-86.1758,75.04,81,0,7.92,1627865475
Lipari,IT,38.4674,14.954,86.56,68,10,5.14,1627865475
Mbigou,GA,-1.9005,11.906,66.09,97,100,4.9,1627865475
Puerto Rico,AR,-26.796,-55.024,51.89,70,0,2.13,1627865476
Capitão Poço,BR,-1.7464,-47.0594,72.54,76,99,3.38,1627865444
Chodzież,PL,52.995,16.9198,59.09,95,100,6.96,1627865476
Zhovkva,UA,50.0583,23.9726,61.81,91,0,9.69,1627865476
Lukulu,ZM,-14.3707,23.242,53.1,61,0,3.89,1627865477
Umm Hājar,TD,13.2954,19.6966,76.23,79,100,8.28,1627865477
Saint Anthony,US,45.0205,-93.218,76.89,45,40,3.0,1627865477
Medininagar,IN,24.0333,84.0667,77.16,88,100,4.07,1627865478
Marsá Maţrūḩ,EG,31.3525,27.2453,79.0,83,0,9.22,1627865478
Iisalmi,FI,63.5592,27.1907,59.02,99,76,4.56,1627865478
Japura,ID,-0.3167,102.35,77.41,90,100,3.0,1627865479
Zhezkazgan,KZ,47.8043,67.7144,79.32,31,10,6.35,1627865479
Kédougou,SN,12.5579,-12.1743,74.41,90,92,5.21,1627865479
Béboto,TD,8.2668,16.939,70.18,93,100,3.56,1627865479
Great Yarmouth,GB,52.6083,1.7305,55.94,84,5,8.23,1627865480
Ilhéus,BR,-14.7889,-39.0494,67.82,94,75,6.91,1627865329
Santa Cruz del Sur,CU,20.7147,-77.9956,81.79,78,84,3.29,1627865480
Trofors,NO,65.5333,13.4063,45.75,90,38,3.22,1627865480
Bulungu,CD,-4.55,18.6,71.11,40,100,2.98,1627865481
Shakawe,BW,-18.3667,21.85,53.2,50,0,5.03,1627865481
Luanda,AO,-8.8368,13.2343,73.4,83,75,6.91,1627865228
Plettenberg Bay,ZA,-34.0527,23.3716,58.03,84,100,8.03,1627865481
Ust'-Koksa,RU,50.2696,85.6108,56.86,69,9,1.54,1627865482
Tambura,SS,5.6,27.4667,67.53,99,100,1.88,1627865482
Moche,PE,-8.1711,-79.0092,64.58,88,90,6.91,1627865482
Andros Town,BS,24.7,-77.7667,84.16,74,2,11.9,1627865483
Bulawayo,ZW,-20.15,28.5833,50.34,61,0,3.58,1627865483
Triel-sur-Seine,FR,48.9782,2.0074,63.16,83,0,4.61,1627865483
Natal,BR,-5.795,-35.2094,75.85,83,0,10.36,1627865484
Irecê,BR,-11.3042,-41.8558,64.09,67,37,15.21,1627865187
La Maná,EC,-0.9333,-79.2167,80.89,75,9,4.72,1627865484
Taltal,CL,-25.4,-70.4833,58.5,75,21,3.69,1627865484
Prieska,ZA,-29.6641,22.7474,47.37,52,0,3.24,1627865485
Najrān,SA,17.4924,44.1277,86.65,51,98,14.09,1627865485
Vikýřovice,CZ,49.9779,17.0123,60.04,91,100,2.66,1627865485
Donji grad,HR,45.8131,15.9775,66.88,82,75,1.99,1627865486
Santa Rosa,PH,14.3122,121.1114,88.09,72,100,15.9,1627865392
Lima,PE,-12.0432,-77.0282,61.9,82,90,6.91,1627865486
Muhafazat Lahij,YE,13.1667,44.5833,83.97,63,100,5.61,1627865486
Nampula,MZ,-15.1165,39.2666,60.75,94,20,3.44,1627865487
San Juan,AR,-31.5375,-68.5364,55.8,27,0,4.5,1627865341
Turiaçu,BR,-1.6633,-45.3717,72.95,80,57,2.08,1627865487
Kalabo,ZM,-14.97,22.6814,54.23,58,0,4.63,1627865487
Baie-Comeau,CA,49.2168,-68.1489,60.8,94,75,2.3,1627865488
Catherinas Lust,GY,6.4,-57.6,77.77,85,100,3.87,1627865488
Codajás,BR,-3.8367,-62.0569,76.46,56,26,1.19,1627865488
Tres Arroyos,AR,-38.3739,-60.2798,41.14,57,0,8.52,1627865489
Marawi,PH,7.9986,124.2928,82.65,67,54,5.59,1627865489
Bhandāra,IN,21.1667,79.65,77.59,85,100,14.76,1627865489
Muzhi,RU,65.3667,64.6667,55.04,92,100,2.57,1627865489
Mēga,ET,4.05,38.3,55.22,78,98,16.33,1627865490
Berlevåg,NO,70.8578,29.0864,46.02,92,100,17.67,1627865490
Yei,SS,4.095,30.6779,66.06,96,100,4.09,1627865490
Shurugwi,ZW,-19.6702,30.0059,48.0,55,0,2.57,1627865491
Kismayo,SO,-0.3582,42.5454,74.7,85,100,18.39,1627865491
Mahajanga,MG,-15.7167,46.3167,68.02,73,0,3.44,1627865491
Misasi,TZ,-3.0,33.0833,66.2,52,2,9.33,1627865492
Boralday,KZ,43.3578,76.8594,66.06,39,20,6.71,1627865492
Synya,RU,65.3718,58.0387,51.26,98,89,3.04,1627865492
Nola,IT,40.922,14.5329,80.37,61,7,4.99,1627865492
Nauta,PE,-4.5061,-73.5757,71.44,75,11,2.13,1627865493
Aksu,CN,41.1231,80.2644,77.25,18,91,5.86,1627865493
Monte Alegre de Minas,BR,-18.8706,-48.8808,72.25,52,3,6.6,1627865494
Owosso,US,42.9978,-84.1766,66.6,63,1,5.75,1627865494
Shakiso,ET,5.75,38.9167,58.71,82,100,3.85,1627865494
Portel,BR,-1.9356,-50.8211,75.87,79,34,3.24,1627865494
Patillas,PR,18.0064,-66.0157,82.65,78,5,6.29,1627865495
Saint-François,FR,46.4154,3.9054,55.18,94,40,1.14,1627865495
Singānallūr,IN,11.0,77.0167,73.44,94,20,9.22,1627865495
La Rioja,ES,42.25,-2.5,50.04,84,100,4.76,1627865496
Arlit,NE,18.7369,7.3853,95.0,25,5,11.86,1627865496
Carinhanha,BR,-14.3047,-43.765,70.29,43,97,10.2,1627865496
Goderich,CA,43.7501,-81.7165,65.91,72,75,10.36,1627865497
Esil,KZ,51.9556,66.4042,70.18,67,7,6.44,1627865497
Sovetskiy,RU,61.3614,63.5842,55.26,94,15,7.87,1627865497
Sioux Lookout,CA,50.1001,-91.917,75.27,41,75,2.3,1627865497
Chapais,CA,49.7834,-74.8492,56.98,74,100,4.45,1627865498
Farsund,NO,58.0948,6.8047,57.94,83,91,8.28,1627865498
Saint-Joseph,RE,-21.3667,55.6167,66.56,71,37,7.58,1627865498
Maniitsoq,GL,65.4167,-52.9,48.47,75,100,3.44,1627865499
Brae,GB,60.3964,-1.353,49.91,80,100,12.03,1627865499
Abaí,PY,-26.0333,-55.9333,53.89,67,0,1.23,1627865499
Herat Province,AF,34.5,62.0,72.18,18,0,12.48,1627865499
Narva-Jõesuu,EE,59.4589,28.0408,59.22,78,100,8.72,1627865500
Constitución,CL,-35.3333,-72.4167,53.22,65,0,6.71,1627865500
Jumla,NP,29.2747,82.1838,64.87,88,97,1.77,1627865500
Talara,PE,-4.5772,-81.2719,65.28,87,0,20.15,1627865501
Korla,CN,41.7597,86.1469,77.27,15,98,2.42,1627865501
Laas,IT,46.6166,10.7002,58.08,91,69,5.5,1627865501
Fuerte Olimpo,PY,-21.0415,-57.8738,68.07,44,100,4.47,1627865502
Havøysund,NO,70.9963,24.6622,45.48,85,100,9.71,1627865502
Kemijärvi,FI,66.7131,27.4306,50.29,97,100,6.17,1627865502
Kiryat Gat,IL,31.61,34.7642,85.41,63,0,1.16,1627865285
Laï,TD,9.3952,16.2989,73.0,93,100,4.65,1627865503
Manicoré,BR,-5.8092,-61.3003,76.87,47,17,1.95,1627865503
São José da Coroa Grande,BR,-8.8978,-35.1478,73.31,80,4,12.84,1627865503
Sistranda,NO,63.7256,8.834,49.89,71,32,11.05,1627865504
Thyborøn,DK,56.6985,8.2124,59.09,87,31,9.78,1627865504
Zapadnaya Dvina,RU,56.259,32.0745,61.34,66,100,4.72,1627865504
Moyale,KE,3.5167,39.0584,64.98,70,100,12.68,1627865505
Makat,KZ,47.6469,53.3463,83.62,21,2,5.3,1627865505
Humaitá,BR,-7.5061,-63.0208,76.23,43,1,3.31,1627865505
Quelimane,MZ,-17.8786,36.8883,62.55,93,0,1.99,1627865505
Raudeberg,NO,61.9875,5.1352,52.47,86,22,15.3,1627865506
Zhangaözen,KZ,43.3,52.8,82.76,14,0,2.91,1627865506
Poopó,BO,-18.3667,-66.9667,40.46,62,48,5.19,1627865506
Nortelândia,BR,-14.4547,-56.8028,71.67,34,0,2.73,1627865507
Pala,TD,9.3642,14.9046,71.38,96,100,5.41,1627865507
Gouré,NE,13.9835,10.2704,81.99,64,100,11.34,1627865507
Tsogni,GA,-2.7942,10.0988,71.44,88,76,4.45,1627865508
Porbandar,IN,21.6422,69.6093,81.43,86,100,19.57,1627865508
Cervo,ES,43.6702,-7.4101,59.97,84,25,1.99,1627865508
Lethem,GY,3.3803,-59.7968,74.3,94,100,2.89,1627865508
Praia da Vitória,PT,38.7333,-27.0667,75.76,100,90,13.98,1627865509
Ust-Tsilma,RU,65.441,52.1498,48.67,96,49,2.51,1627865509
Gore,NZ,-46.1028,168.9436,45.23,85,100,2.08,1627865509
Tekāri,IN,24.9333,84.8333,80.82,78,100,5.26,1627865510
Bonthe,SL,7.5264,-12.505,76.14,86,86,9.66,1627865510
Kohlu,PK,29.8962,69.252,80.37,60,55,2.06,1627865510
La Celia,CO,5.0433,-76.0167,69.39,98,100,3.74,1627865511
Khanbari,NP,27.3747,87.2039,74.48,89,100,1.97,1627865511
Arinos,BR,-15.9169,-46.1056,65.39,57,49,3.78,1627865511
Warrington,GB,53.3925,-2.5802,58.55,81,75,5.75,1627865512
Yabrūd,SY,33.9674,36.6574,65.52,36,0,3.38,1627865512
Tromsø,NO,69.6496,18.957,46.42,76,90,3.0,1627865512
Bentiu,SS,9.2333,29.8333,69.91,97,53,4.45,1627865512
Sinnamary,GF,5.3833,-52.95,78.03,84,3,8.05,1627865513
Esim,GH,4.8699,-2.2405,75.38,90,11,4.7,1627865513
Isāgarh,IN,24.8333,77.8833,74.59,96,100,14.97,1627865513
Edgewater,US,28.9889,-80.9023,87.89,72,94,5.41,1627865513
Jinotega,NI,13.0917,-86.0018,67.87,79,95,5.3,1627865514
Biltine,TD,14.5333,20.9167,73.47,76,100,10.54,1627865514
Tomé,CL,-36.6167,-72.95,52.41,65,5,4.14,1627865514
Barvinkove,UA,48.9097,37.0205,72.18,59,29,2.93,1627865515
Kaya,BF,13.0917,-1.0844,78.87,69,13,9.66,1627865515
Praia,CV,14.9215,-23.5087,77.54,73,75,4.61,1627865515
Pidhorodna,UA,48.107,30.8895,69.08,82,4,6.98,1627865515
Kiruna,SE,67.8557,20.2251,40.12,81,90,6.91,1627865516
Sicuani,PE,-14.2694,-71.2261,45.18,62,6,5.97,1627865516
Bāsudebpur,IN,21.1353,86.7386,81.9,76,99,7.0,1627865516
Tuscaloosa,US,33.2098,-87.5692,87.58,83,1,6.91,1627865273
Kasempa,ZM,-13.4584,25.8338,53.73,71,3,5.46,1627865517
Florence,IT,43.7667,11.25,72.64,76,0,3.44,1627865469
Kareli,IN,22.9167,79.0667,73.44,89,100,18.3,1627865517
Iracoubo,GF,5.4802,-53.2011,78.13,84,43,7.9,1627865517
Uyuni,BO,-20.4597,-66.825,39.22,26,55,4.41,1627865518
Arrondissement d'Issoudun,FR,47.0,1.8333,57.11,94,0,6.91,1627865518
Shihezi,CN,44.3,86.0333,78.21,19,0,4.0,1627865518
Samarkand,UZ,39.6542,66.9597,72.82,46,2,4.61,1627865519
Staryy Nadym,RU,65.6118,72.6842,57.45,91,100,12.26,1627865519
Inta,RU,66.0317,60.1659,50.99,93,75,8.77,1627865519
Visnes,NO,59.3556,5.2242,54.57,76,18,28.77,1627865520
Sarkand,KZ,45.41,79.9186,74.28,20,0,3.31,1627865520
Władysławowo,PL,54.7909,18.4009,61.77,86,100,7.63,1627865520
Crossville,US,35.949,-85.0269,73.31,82,1,5.75,1627865284
Batticaloa,LK,7.7102,81.6924,80.51,71,100,6.4,1627865521
Stilling,DK,56.0622,9.9882,56.66,88,8,1.99,1627865521
Staryy Saltiv,UA,50.0827,36.7939,72.95,53,53,4.36,1627865521
Östersund,SE,63.1792,14.6357,43.61,87,29,8.05,1627865521
Gibara,CU,21.1097,-76.1317,81.01,87,7,13.15,1627865522
Barnstaple,GB,51.0802,-4.0581,57.2,90,27,4.7,1627865522
Norton Shores,US,43.1689,-86.2639,72.21,66,99,1.99,1627865322
Pionerskiy,RU,54.9508,20.2275,60.64,82,100,8.66,1627865522
Ostrovnoy,RU,68.0531,39.5131,48.61,84,57,7.99,1627865523
Bondo,CD,3.8146,23.6866,69.33,94,100,0.47,1627865523
Filingué,NE,14.3521,3.3168,84.76,57,73,15.99,1627865523
Aasiaat,GL,68.7098,-52.8699,39.15,82,0,6.98,1627865524
Dodola,ET,6.9833,39.1833,51.6,90,100,1.74,1627865524
Ashtabula,US,41.7001,-80.7665,68.65,82,75,6.91,1627865524
Spartanburg,US,34.9496,-81.9321,83.26,78,1,0.0,1627865525
Olafsvik,IS,64.8945,-23.7142,53.35,90,67,3.33,1627865525
Marsh Harbour,BS,26.5412,-77.0636,84.4,74,61,12.53,1627865525
Mizhhirya,UA,48.5246,23.5056,64.54,95,4,5.26,1627865525
Una,IN,20.8167,71.0333,80.06,86,100,16.33,1627865526
Port Blair,IN,11.6667,92.75,82.22,81,100,19.48,1627865526
Sungurlu,TR,40.1675,34.3739,63.88,74,0,4.5,1627865526
Mhlume,SZ,-26.0333,31.85,56.64,29,34,3.4,1627865527
Širvintos,LT,55.05,24.95,63.95,97,100,5.1,1627865527
Boquira,BR,-12.8231,-42.7306,66.78,51,100,7.05,1627865527
Walvis Bay,NA,-22.9575,14.5053,70.75,17,0,10.36,1627865527
Mambolo,SL,8.9231,-13.0444,73.51,96,99,4.05,1627865528
Necochea,AR,-38.5473,-58.7368,41.65,70,0,8.84,1627865528
Salamiyah,SY,35.0113,37.0532,74.23,61,0,7.38,1627865528
Zambezi,ZM,-13.5432,23.1047,52.88,60,0,5.44,1627865529
Lohja,FI,60.2486,24.0653,60.58,97,100,4.54,1627865529
Maridi,SS,4.9158,29.4742,64.02,99,96,4.07,1627865529
Sainte-Adèle,CA,45.9501,-74.1325,62.42,86,100,0.22,1627865461
Huancayo,PE,-12.0667,-75.2333,48.29,75,28,3.67,1627865530
Catabola,AO,-12.15,17.2833,53.98,41,1,2.53,1627865530
Malinyi,TZ,-8.9333,36.1333,67.78,61,50,1.16,1627865530
Catia La Mar,VE,10.6038,-67.0303,82.6,89,37,4.61,1627865530
Endicott,US,42.0984,-76.0494,62.37,91,75,0.0,1627865531
Guadalajara,MX,20.6667,-103.3333,66.06,79,100,5.23,1627865397
Tornio,FI,65.8481,24.1466,53.62,91,28,10.09,1627865531
Doha,QA,25.2867,51.5333,93.51,52,0,0.0,1627865531
Owensboro,US,37.7742,-87.1133,78.85,61,1,5.75,1627865341
Tauá,BR,-5.9667,-40.3,71.76,59,65,10.96,1627865527
Perevolotskiy,RU,51.8763,54.1938,71.04,47,6,2.46,1627865532
Ikom,NG,5.9667,8.7063,71.47,97,100,0.76,1627865532
Tanout,NE,14.9709,8.8879,86.22,48,53,12.73,1627865532
Mariehamn,AX,60.0973,19.9348,60.66,77,0,3.44,1627865533
Kalaiya,NP,27.0327,85.0022,79.86,91,100,8.01,1627865533
Téra,NE,14.0078,0.7531,82.74,59,99,13.44,1627865533
Mattru,SL,7.6244,-11.8332,72.68,95,87,3.31,1627865534
Nur-Sultan,KZ,51.1801,71.446,67.95,68,0,6.71,1627865534
Baracoa,CU,20.3467,-74.4958,81.93,85,100,7.47,1627865534
Mglin,RU,53.0591,32.8475,64.08,93,100,7.27,1627865535
Agirish,RU,61.9247,63.0231,54.9,94,14,7.43,1627865535
Ouricuri,BR,-7.8825,-40.0817,71.6,57,67,10.47,1627865405
Marietta,US,33.9526,-84.5499,82.76,83,90,5.75,1627865504
General Roca,AR,-39.0333,-67.5833,45.0,46,51,4.94,1627865535
Fryazino,RU,55.9606,38.0456,68.0,89,100,2.98,1627865536
Grand-Santi,GF,4.25,-54.3833,73.78,97,99,2.44,1627865536
Warwick,US,41.7001,-71.4162,70.57,78,90,11.5,1627865357
São Francisco,BR,-15.9486,-44.8644,67.42,49,3,8.43,1627865536
Iquique,CL,-20.2208,-70.1431,59.04,77,100,4.14,1627865454
Djebeniana,TN,35.035,10.9081,82.2,74,1,14.65,1627865537
Tefé,BR,-3.3542,-64.7114,73.63,60,44,1.41,1627865468
Vila do Maio,CV,15.1333,-23.2167,77.79,76,61,2.1,1627865537
Māngrol,IN,21.1167,70.1167,81.37,85,100,20.0,1627865538
Corrales,US,35.2378,-106.6067,82.4,50,75,1.99,1627865538
Killybegs,IE,54.6333,-8.45,52.45,83,100,2.28,1627865538
Zharkent,KZ,44.1628,80.0,73.63,23,2,3.65,1627865538
Bogorodskoye,RU,56.55,37.8833,67.78,92,100,5.06,1627865539
Oktyabr'skiy,RU,54.4815,53.471,63.28,62,80,4.5,1627865540
Plouzané,FR,48.3833,-4.6167,60.85,94,90,3.44,1627865540
Florø,NO,61.5996,5.0328,53.56,62,0,13.8,1627865540
Humberto de Campos,BR,-2.5983,-43.4611,74.57,85,32,3.33,1627865540
Chitipa,MW,-9.7024,33.2697,57.13,86,93,3.29,1627865541
St. George's,GD,12.0564,-61.7485,82.08,83,20,11.5,1627865541
Linköping,SE,58.4109,15.6216,57.18,84,90,3.44,1627865541
Ugoofaaru,MV,5.6667,73.0,82.81,75,83,12.19,1627865542
Pokhara,NP,28.2333,83.9833,74.34,89,68,0.94,1627865542
Mortka,RU,59.3322,66.0214,56.5,96,3,7.27,1627865542
Maricá,BR,-22.9194,-42.8186,64.35,76,4,10.09,1627865472
City of San Pedro,PH,14.35,121.0167,87.31,76,90,11.5,1627865543
Valdivia,CL,-39.8142,-73.2459,42.75,85,100,2.71,1627865543
Bay Roberts,CA,47.5999,-53.2648,62.35,87,11,5.99,1627865543
Stornoway,GB,58.2093,-6.3865,50.94,81,90,8.05,1627865544
Telde,ES,27.9924,-15.4192,70.05,68,75,24.16,1627865544
Seaham,GB,54.839,-1.3458,52.92,85,100,4.63,1627865544
Koindu,GN,8.4386,-10.3253,69.3,98,98,3.67,1627865545
Shīeli,KZ,44.1667,66.75,79.41,16,0,10.54,1627865545
Kuruman,ZA,-27.4524,23.4325,46.83,41,2,5.12,1627865545
Miranda,CO,3.2499,-76.2281,77.13,77,100,6.49,1627865545
Mangan,IN,27.5167,88.5333,78.58,89,93,1.01,1627865546
Dekar,BW,-21.5333,21.9333,50.65,48,0,6.4,1627865546
Pitimbu,BR,-7.4706,-34.8086,73.99,83,26,16.58,1627865546
San Onofre,CO,9.7359,-75.5263,80.55,86,52,7.52,1627865547
Ilebo,CD,-4.3167,20.5833,65.39,39,90,1.95,1627865547
Bocas del Toro,PA,9.3333,-82.25,84.07,81,100,9.06,1627865547
Bouca,CF,6.5105,18.2733,68.7,96,100,3.47,1627865547
